Geographic name,percent elderly 65+ 2016,percent elderly 85+ 2016,percent elderly 65+ 2011,percent elderly 85+ 2011,Latitude,Longitude,predicted 65+,predicted 85+
Portugal Cove South,20.0,0.0,15.625,0.0,47.613369,-52.842377,20.875,0.0
Trepassey,36.734693877551024,2.0408163265306123,22.807017543859647,1.7543859649122806,46.737496,-53.364128,39.52022914428926,2.0981023988542944
St. Shott's,42.857142857142854,0.0,12.5,0.0,52.89,-60.511,48.92857142857065,0.0
Cape Broyle,19.148936170212767,0.0,20.0,2.0,47.095251,-52.95655,18.978723404255334,0.0
Renews-Cappahayden,29.03225806451613,0.0,15.151515151515152,3.0303030303030303,46.88541,-52.935499,31.8084066471165,0.0
Fermeuse,23.333333333333332,3.3333333333333335,15.625,0.0,46.976139,-52.944003,24.875,4.0
Aquaforte,37.5,0.0,25.0,0.0,47.006499,-52.958695,40.0,0.0
Ferryland,25.301204819277107,2.4096385542168677,19.35483870967742,2.1505376344086025,47.035664,-52.884379,26.490478041197093,2.461458738178507
Gaskiers-Point La Haye,32.0,0.0,25.0,0.0,52.89,-60.511,33.40000000000009,0.0
Riverhead,29.72972972972973,0.0,21.428571428571427,0.0,52.89,-60.511,31.389961389961627,0.0
Mount Carmel-Mitchells Brook-St. Catherine's,32.35294117647059,0.0,25.71428571428571,2.857142857142857,47.132321,-53.497723,33.68067226890798,0.0
Colinet,33.33333333333333,0.0,33.33333333333333,0.0,47.219266,-53.552108,33.33333333333333,0.0
Branch,23.809523809523807,4.761904761904762,13.636363636363637,0.0,46.88206,-53.953498,25.84415584415592,5.714285714285552
Placentia,27.966101694915253,3.954802259887006,22.371967654986523,4.31266846361186,47.364083,-53.857708,29.08492850290122,3.8832290191420498
Fox Harbour,23.52941176470588,0.0,18.51851851851852,0.0,47.32123,-53.91255,24.531590413943604,0.0
Long Harbour-Mount Arlington Heights,25.0,0.0,19.35483870967742,3.225806451612903,47.385673,-53.756172,26.1290322580644,0.0
Southern Harbour,18.91891891891892,0.0,14.000000000000002,0.0,47.714619,-53.972145,19.902702702702527,0.0
Arnold's Cove,23.958333333333336,1.0416666666666663,17.708333333333336,1.0416666666666663,47.772662,-53.9785,25.208333333333485,1.0416666666666663
Come By Chance,17.391304347826086,0.0,25.0,0.0,47.802766,-53.998434,15.869565217391482,0.0
Sunnyside,25.64102564102564,0.0,17.391304347826086,0.0,47.897371,-53.949718,27.290969899665015,0.0
Chance Cove,36.0,0.0,27.58620689655172,0.0,47.650815,-53.800656,37.68275862068958,0.0
Norman's Cove-Long Cove,30.303030303030305,4.545454545454546,23.28767123287671,4.10958904109589,47.561807,-53.695672,31.70610211706071,4.632627646326284
Chapel Arm,24.444444444444443,2.2222222222222223,19.148936170212767,0.0,47.518965,-53.674622,25.50354609929036,2.6666666666666288
Whitbourne,23.52941176470588,1.1764705882352942,20.224719101123593,1.1235955056179776,47.420064,-53.535784,24.190350297422583,1.187045604758758
Whiteway,31.08108108108108,6.756756756756757,27.58620689655172,5.172413793103448,47.665428,-53.485436,31.780055917987056,7.073625349487429
Heart's Delight-Islington,29.230769230769234,0.0,22.388059701492537,1.4925373134328357,47.759507,-53.481573,30.599311136624237,0.0
Heart's Desire,25.0,0.0,19.047619047619047,0.0,47.810467,-53.445571,26.190476190476147,0.0
Heart's Content,29.411764705882355,0.0,27.77777777777778,0.0,47.872161,-53.368424,29.73856209150324,0.0
New Perlican,26.31578947368421,0.0,19.047619047619047,0.0,47.907784,-53.361034,27.769423558897415,0.0
Winterton,36.95652173913043,4.3478260869565215,28.000000000000004,2.0,47.955667,-53.329588,38.74782608695614,4.817391304347893
Hant's Harbour,25.806451612903224,0.0,24.24242424242424,3.0303030303030303,48.005558,-53.26773,26.119257086998914,0.0
Old Perlican,18.181818181818183,3.0303030303030303,16.666666666666664,3.0303030303030303,48.082531,-53.005519,18.4848484848485,3.0303030303030303
Bay de Verde,30.76923076923077,2.564102564102564,21.951219512195124,0.0,48.085194,-52.895034,32.53283302063801,3.0769230769230944
Small Point-Adam's Cove-Blackhead-Broad Cove,26.31578947368421,0.0,25.64102564102564,2.564102564102564,47.837682,-53.098649,26.45074224021593,0.0
Salmon Cove,23.52941176470588,0.0,18.181818181818183,0.0,47.782033,-53.175116,24.598930481283787,0.0
Carbonear,25.0,4.069767441860465,22.664015904572565,4.572564612326044,47.722624,-53.228726,25.46719681908553,3.9692080077673495
Harbour Grace,24.836601307189543,1.96078431372549,19.5046439628483,2.1671826625387,47.696724,-53.21369,25.902992776057545,1.9195046439628527
Upper Island Cove,21.474358974358974,1.6025641025641024,17.86833855799373,1.2539184952978055,47.648062,-53.212829,22.195563057631944,1.672293224017352
Bishop's Cove,26.666666666666668,0.0,23.333333333333332,0.0,52.89,-60.511,27.333333333333258,0.0
Spaniard's Bay,18.846153846153847,0.7692307692307693,14.942528735632186,0.7662835249042145,47.58166,-53.273277,19.626878868258245,0.7698202180960804
Bay Roberts,18.19757365684575,1.0398613518197577,14.385964912280702,1.0526315789473684,47.598168,-53.257591,18.95989540575897,1.0373073063942355
North River,18.96551724137931,1.7241379310344829,15.789473684210526,1.7543859649122806,47.542792,-53.314469,19.600725952813036,1.7180883242589253
Clarke's Beach,34.08360128617363,7.395498392282958,24.014336917562723,7.168458781362006,47.552354,-53.285857,36.09745415989619,7.440906314467142
South River,20.8955223880597,2.9850746268656714,13.432835820895525,0.0,47.554499,-53.287575,22.388059701492693,3.5820895522388128
Cupids,22.22222222222222,1.3888888888888888,16.43835616438356,1.36986301369863,47.561551,-53.205869,23.378995433789896,1.3926940639269407
Brigus,26.38888888888889,0.0,20.27027027027027,0.0,47.535825,-53.207761,27.612612612612793,0.0
Colliers,21.53846153846154,1.5384615384615383,15.384615384615383,0.0,52.89,-60.511,22.769230769230944,1.8461538461538112
Conception Harbour,20.437956204379564,1.45985401459854,16.428571428571427,1.4285714285714286,47.446647,-53.203554,21.239833159541377,1.4661105318039613
Avondale,21.875,1.5625,18.96551724137931,0.0,47.420665,-53.198308,22.456896551724185,1.875
Harbour Main-Chapel's Cove-Lakeview,19.158878504672895,2.803738317757009,14.285714285714285,2.3041474654377883,47.432795,-53.160254,20.133511348464708,2.903656488220861
Holyrood,21.22448979591837,2.0408163265306123,16.097560975609756,1.951219512195122,47.379666,-53.165663,22.249875559980183,2.0587356893977145
Conception Bay South,13.63106796116505,0.6601941747572815,11.088295687885012,0.5338809034907598,47.49821,-52.990122,14.139622415821009,0.6854568290105902
Wabana,24.0,1.0,17.647058823529413,0.904977375565611,52.89,-60.511,25.270588235294326,1.0190045248868742
Portugal Cove-St. Philip's,12.5,0.6127450980392157,10.273972602739724,0.684931506849315,47.613369,-52.842377,12.945205479452056,0.5983078162771953
Pouch Cove,13.861386138613865,1.4851485148514851,11.538461538461538,0.5494505494505495,47.763632,-52.765906,14.325971058644427,1.6722881079316494
Flatrock,8.187134502923977,0.5847953216374269,7.586206896551724,0.0,47.700755,-52.726367,8.307320024198447,0.7017543859649322
Torbay,9.585492227979271,0.38860103626943,6.815020862308763,0.278164116828929,47.66621,-52.77041,10.1395865011134,0.41068842015752693
Logy Bay-Middle Cove-Outer Cove,15.315315315315312,0.9009009009009008,12.38095238095238,0.9523809523809524,47.623843,-52.691422,15.902187902187961,0.8906048906048945
Bauline,11.363636363636363,2.272727272727273,12.82051282051282,0.0,47.710021,-52.80932,11.072261072261085,2.7272727272726343
Paradise,7.88224121557455,0.4273504273504274,6.145893164847789,0.4595060310166571,47.531548,-52.846628,8.229510825720013,0.4209193066171828
Mount Pearl,17.708333333333336,2.0416666666666665,13.11861743912019,1.6889238020424195,47.521458,-52.80912,18.62627651217599,2.1122152395915066
Petty Harbour-Maddox Cove,16.145833333333336,1.0416666666666663,12.432432432432432,0.5405405405405406,47.896937,-53.078203,16.888513513513544,1.1418918918918735
Bay Bulls,13.6986301369863,0.684931506849315,8.73015873015873,0.0,47.318591,-52.817795,14.692324418351973,0.8219178082192116
Witless Bay,13.125,0.625,13.79310344827586,0.8620689655172413,47.28265,-52.829908,12.991379310344826,0.5775862068965409
Lewin's Cove,20.37037037037037,1.8518518518518516,16.666666666666664,0.0,47.092156,-55.232338,21.111111111111086,2.2222222222222854
Burin,17.82608695652174,1.7391304347826086,13.636363636363637,1.2396694214876034,47.045377,-55.171509,18.664031620553487,1.8390226374416159
Lawn,15.625,0.0,11.594202898550725,0.0,46.949494,-55.538194,16.43115942028976,0.0
Lamaline,22.22222222222222,0.0,17.24137931034483,3.4482758620689653,46.858082,-55.80728,23.218390804597675,0.0
Lord's Cove,25.0,0.0,25.0,0.0,48.64847,-58.996688,25.0,0.0
Point May,25.0,0.0,16.666666666666664,0.0,52.89,-60.511,26.66666666666697,0.0
Point au Gaul,29.411764705882355,0.0,20.0,0.0,52.89,-60.511,31.294117647058556,0.0
Frenchman's Cove,29.411764705882355,0.0,21.052631578947366,0.0,47.215657,-55.402707,31.083591331269417,0.0
Fortune,26.08695652173913,1.4492753623188406,18.055555555555554,1.3888888888888888,47.072889,-55.828156,27.693236714975683,1.4613526570048307
Grand Bank,31.16883116883117,4.978354978354979,25.051759834368532,3.7267080745341614,47.096285,-55.759083,32.39224543572391,5.228684359119143
Garnish,23.89380530973451,3.5398230088495577,18.34862385321101,1.834862385321101,47.234996,-55.360264,25.00284160103911,3.880815133555302
Winterland,15.789473684210526,0.0,17.142857142857142,2.857142857142857,47.162244,-55.298407,15.51879699248127,0.0
Marystown,19.92619926199262,2.3985239852398523,13.537906137184116,1.9855595667870036,47.165339,-55.155704,21.20385788695421,2.481116868930428
Fox Cove-Mortier,20.689655172413794,0.0,11.76470588235294,0.0,52.89,-60.511,22.474645030426018,0.0
Bay L'Argent,28.000000000000004,0.0,25.0,3.571428571428571,47.545597,-54.893732,28.600000000000136,0.0
Grand le Pierre,20.0,0.0,18.51851851851852,0.0,47.67901,-54.785927,20.29629629629619,0.0
Rushoon,26.923076923076923,3.8461538461538463,17.24137931034483,0.0,47.354449,-54.914714,28.859416445623083,4.615384615384528
Parkers Cove,20.0,0.0,13.333333333333334,1.6666666666666667,47.395994,-54.862132,21.33333333333303,0.0
Terrenceville,19.148936170212767,0.0,16.0,0.0,47.662416,-54.721406,19.778723404255516,0.0
Red Harbour,15.789473684210526,0.0,15.0,0.0,47.296358,-55.009451,15.947368421052602,0.0
English Harbour East,13.333333333333334,0.0,21.428571428571427,0.0,47.634893,-54.886224,11.71428571428578,0.0
Baine Harbour,25.0,0.0,16.666666666666664,0.0,47.358752,-54.894265,26.66666666666697,0.0
Little Bay East,33.33333333333333,0.0,21.428571428571427,0.0,47.554413,-54.850794,35.714285714285325,0.0
Rencontre East,14.814814814814811,0.0,17.857142857142858,0.0,47.647543,-55.231392,14.20634920634916,0.0
Belleoram,12.0,0.0,8.641975308641975,1.2345679012345678,47.523783,-55.41216,12.671604938271685,0.0
Pool's Cove,36.84210526315789,0.0,21.052631578947366,0.0,47.68202,-55.4332,40.0,0.0
Harbour Breton,17.72151898734177,0.0,11.976047904191615,0.5988023952095809,47.469531,-55.821456,18.87061320397197,0.0
Seal Cove (Fortune Bay),43.47826086956522,0.0,40.0,0.0,47.072889,-55.828156,44.17391304347825,0.0
Hermitage-Sandyville,30.23255813953488,2.3255813953488373,24.444444444444443,0.0,47.557426,-55.927904,31.39018087855311,2.7906976744185386
Gaultois,20.0,0.0,15.789473684210526,0.0,47.607679,-55.920087,20.84210526315769,0.0
Milltown-Head of Bay d'Espoir,28.767123287671232,1.36986301369863,22.36842105263158,0.0,47.916034,-55.74688,30.04686373467939,1.6438356164384231
Morrisville,30.0,0.0,20.833333333333336,0.0,47.494718,-53.227094,31.83333333333303,0.0
Ramea,27.906976744186046,0.0,18.367346938775512,2.0408163265306123,47.522919,-57.386908,29.814902705268196,0.0
Burgeo,28.735632183908045,1.9157088122605364,18.43003412969283,1.3651877133105803,47.612361,-57.613889,30.79675179475089,2.025813032050536
Isle aux Morts,25.75757575757576,3.0303030303030303,22.58064516129032,1.6129032258064515,47.587509,-58.974264,26.392961876832942,3.3137829912024017
Burnt Islands,18.0327868852459,1.639344262295082,9.375,0.0,47.604448,-58.874858,19.7643442622948,1.9672131147540313
Channel-Port aux Basques,23.157894736842103,2.368421052631579,17.974683544303797,1.7721518987341771,47.570912,-59.135614,24.194536975349365,2.4876748834110742
Rose Blanche-Harbour le Cou,33.33333333333333,2.564102564102564,21.73913043478261,0.0,47.611586,-58.693407,35.65217391304395,3.0769230769230944
Samiajij Miawpukek,6.666666666666667,0.0,4.49438202247191,0.0,52.89,-60.511,7.101123595505555,0.0
Gallants,50.0,10.0,25.0,0.0,48.703091,-58.241871,55.0,12.0
Stephenville Crossing,25.153374233128833,2.4539877300613497,21.787709497206706,2.23463687150838,48.503397,-58.435321,25.82650718031323,2.497857901771951
Stephenville,22.356495468277945,2.3413897280966767,18.303571428571427,1.8601190476190477,48.549832,-58.572356,23.167080276219167,2.4376438641922107
Kippens,22.388059701492537,1.9900497512437811,16.2534435261708,1.3774104683195594,48.549832,-58.572356,23.614982936557226,2.1125776078286265
Port au Port East,23.333333333333332,0.0,20.967741935483872,1.6129032258064515,48.557314,-58.715578,23.806451612903174,0.0
Lourdes,24.731182795698924,2.1505376344086025,17.75700934579439,0.9345794392523364,48.64847,-58.996688,26.126017485679768,2.393729273439874
Port au Port West-Aguathuna-Felix Cove,30.434782608695656,2.1739130434782608,23.91304347826087,0.0,48.557054,-58.750883,31.739130434782965,2.6086956521738784
Deer Lake,21.8503937007874,1.968503937007874,17.99163179916318,1.882845188284519,49.181328,-57.421258,22.622146081112305,1.9856356867525449
Jackson's Arm,31.03448275862069,3.4482758620689653,24.24242424242424,0.0,49.866043,-56.794095,32.39289446185967,4.137931034482563
Howley,25.0,0.0,20.0,0.0,49.169197,-57.118253,26.0,0.0
Hampden,25.581395348837212,2.3255813953488373,20.454545454545457,0.0,49.541742,-56.859733,26.606765327695484,2.7906976744185386
Reidville,21.153846153846153,1.9230769230769231,14.000000000000002,0.0,49.210986,-57.437069,22.584615384615518,2.307692307692264
Pasadena,20.85635359116022,1.2430939226519335,15.07462686567164,0.7462686567164178,49.013793,-57.586056,22.012698936257948,1.3424589758390368
Cormack,21.311475409836063,0.0,14.0625,0.0,49.298946,-57.387138,22.761270491803316,0.0
Gillams,17.5,0.0,15.0,0.0,52.89,-60.511,18.0,0.0
Massey Drive,5.487804878048781,0.0,6.382978723404255,0.7092198581560284,48.940784,-57.890509,5.308770108977626,0.0
Corner Brook,23.80722891566265,3.855421686746989,20.342205323193916,2.994296577946768,48.958687,-57.927736,24.500233634156302,4.027646708507007
McIvers,24.074074074074073,1.8518518518518516,18.51851851851852,0.0,52.89,-60.511,25.18518518518522,2.2222222222222854
Cox's Cove,19.402985074626866,0.0,18.461538461538463,0.0,49.116523,-58.075751,19.591274397244547,0.0
Lark Harbour,27.450980392156865,0.0,22.0,0.0,49.102231,-58.363646,28.541176470587743,0.0
Meadows,22.58064516129032,1.6129032258064515,17.1875,0.0,48.964878,-57.922326,23.659274193548754,1.935483870967687
Irishtown-Summerside,22.916666666666664,3.4722222222222223,16.083916083916083,0.6993006993006993,48.962901,-58.029034,24.283216783217085,4.0268065268064674
Mount Moriah,17.56756756756757,1.351351351351351,12.82051282051282,0.0,48.968231,-58.041891,18.51697851697827,1.621621621621557
York Harbour,21.21212121212121,0.0,20.0,0.0,49.06082,-58.379731,21.454545454545496,0.0
Norris Arm,24.65753424657534,1.36986301369863,21.11111111111111,2.2222222222222223,49.087238,-55.267562,25.366818873668308,1.1993911719939092
Gander,19.240297274979355,2.972749793559042,16.666666666666664,2.604166666666667,48.979964,-54.623995,19.755023396641832,3.046466418937541
Appleton,19.29824561403509,0.0,11.29032258064516,0.0,52.89,-60.511,20.89983022071283,0.0
Glenwood,20.0,1.25,15.584415584415584,0.0,48.997455,-54.872531,20.883116883116827,1.5
Northern Arm,23.91304347826087,2.1739130434782608,17.073170731707318,0.0,47.943881,-53.068237,25.281018027571463,2.6086956521738784
Grand Falls-Windsor,21.312632321806635,2.18772053634439,18.469945355191257,2.040072859744991,48.934858,-55.662055,21.881169715129772,2.2172500716642674
Bishop's Falls,23.34384858044164,1.5772870662460567,18.93491124260355,1.4792899408284024,49.010613,-55.495751,24.225636048009164,1.5968864913295917
Peterview,18.6046511627907,0.0,12.941176470588236,0.0,49.125601,-55.336473,19.73734610123165,0.0
Botwood,29.76588628762542,4.3478260869565215,25.080385852090032,4.501607717041801,49.130862,-55.366883,30.702986374732518,4.317069760939454
Badger,22.058823529411764,2.941176470588235,18.181818181818183,1.2987012987012987,48.980605,-56.03452,22.834224598930405,3.2696715049655722
Millertown,33.33333333333333,0.0,27.27272727272727,0.0,48.858317,-56.433594,34.54545454545496,0.0
Buchans,34.78260869565217,2.898550724637681,28.37837837837838,2.702702702702702,48.825542,-56.855185,36.06345475910666,2.9377203290246854
Clarenville,17.488076311605724,2.46422893481717,14.99585749792875,2.31980115990058,48.190247,-53.969667,17.986520074341115,2.49311448980049
Trinity (Trinity Bay),23.52941176470588,5.88235294117647,14.285714285714285,0.0,48.979573,-53.911144,25.378151260504183,7.058823529411711
Port Rexton,23.52941176470588,0.0,18.181818181818183,3.0303030303030303,48.380416,-53.336203,24.598930481283787,0.0
Elliston,25.0,0.0,20.0,0.0,48.633078,-53.040999,26.0,0.0
Trinity Bay North,24.719101123595504,2.247191011235955,19.553072625698324,2.23463687150838,48.979573,-53.911144,25.752306823174877,2.24970183918147
Bonavista,24.963715529753262,3.483309143686502,20.641562064156208,3.3472803347280333,48.651738,-53.112654,25.828146222872647,3.510514905478196
Keels,20.0,0.0,0.0,0.0,48.604804,-53.393337,24.0,0.0
King's Cove,22.22222222222222,11.11111111111111,9.090909090909092,0.0,48.566774,-53.33775,24.848484848484986,13.33333333333394
Musgravetown,28.31858407079646,3.5398230088495577,21.62162162162162,1.8018018018018016,48.397187,-53.897057,29.65797656063114,3.8874272502591793
Port Blandford,29.82456140350877,1.7543859649122806,19.565217391304348,0.0,48.348269,-54.173444,31.876430205949873,2.105263157894683
Traytown,19.230769230769234,0.0,21.428571428571427,0.0,48.666358,-53.97154,18.79120879120876,0.0
Sandy Cove,38.46153846153847,0.0,30.76923076923077,0.0,52.75732,-56.795984,40.000000000000455,0.0
Happy Adventure,25.0,0.0,30.0,0.0,52.89,-60.511,24.0,0.0
Eastport,31.91489361702128,0.0,26.08695652173913,0.0,48.655092,-53.754695,33.080481036077344,0.0
Sandringham,30.434782608695656,0.0,10.714285714285714,0.0,48.66576,-53.823769,34.3788819875781,0.0
Glovertown,26.368159203980102,2.4875621890547266,21.35922330097087,2.4271844660194173,48.681849,-54.037441,27.369946384582136,2.499637733661789
Salvage,27.27272727272727,9.090909090909092,23.076923076923077,0.0,48.688215,-53.650996,28.11188811188822,10.909090909090537
Gambo,24.747474747474747,2.525252525252525,20.792079207920793,1.98019801980198,48.794936,-54.203169,25.538553855385544,2.6342634263426135
Hare Bay,23.958333333333336,1.0416666666666663,18.81188118811881,1.98019801980198,52.89,-60.511,24.987623762376188,0.8539603960396107
Greenspond,23.076923076923077,3.8461538461538463,20.0,0.0,49.068325,-53.572985,23.692307692307622,4.615384615384528
Dover,17.1875,0.0,13.636363636363637,1.5151515151515151,48.869594,-53.96888,17.897727272727252,0.0
Indian Bay,25.0,0.0,17.647058823529413,0.0,49.042705,-53.876604,26.470588235294144,0.0
Lumsden,22.0,2.0,20.37037037037037,1.8518518518518516,49.298721,-53.610616,22.325925925925958,2.029629629629632
Musgrave Harbour,23.232323232323232,2.0202020202020203,18.69158878504673,1.8691588785046729,49.447575,-53.961575,24.140470121778662,2.0504106485414937
Carmanville,26.027397260273972,0.0,16.666666666666664,1.3888888888888888,49.406651,-54.292778,27.89954337899553,0.0
Change Islands,38.095238095238095,0.0,24.0,0.0,49.673073,-54.410653,40.91428571428605,0.0
Crow Head,29.411764705882355,0.0,21.052631578947366,5.263157894736842,52.89,-60.511,31.083591331269417,0.0
Cottlesville,21.428571428571427,0.0,18.51851851851852,0.0,49.510696,-54.865479,22.010582010581857,0.0
Summerford,23.91304347826087,2.1739130434782608,18.823529411764707,1.1764705882352942,49.490072,-54.80775,24.930946291560076,2.3734015345268062
Twillingate,28.169014084507044,1.8779342723004695,24.545454545454547,2.272727272727273,49.648304,-54.763934,28.893725992317513,1.7989756722151071
Campbellton,26.08695652173913,2.1739130434782608,18.867924528301888,0.0,49.292953,-54.935334,27.530762920426696,2.6086956521738784
Birchy Bay,22.22222222222222,1.8518518518518516,14.545454545454543,0.0,49.355022,-54.729763,23.757575757575523,2.2222222222222854
Comfort Cove-Newstead,25.64102564102564,0.0,20.930232558139537,0.0,49.40158,-54.859386,26.58318425760308,0.0
Baytona,28.000000000000004,4.0,16.0,0.0,49.342055,-54.764962,30.400000000000546,4.7999999999999545
Embree,25.0,2.857142857142857,19.424460431654676,1.4388489208633095,49.313003,-55.030783,26.115107913668908,3.140801644398721
Lewisporte,31.818181818181817,4.105571847507331,26.82926829268293,3.5868005738880915,49.244793,-55.057158,32.81596452328154,4.209326102231188
Little Burnt Bay,22.22222222222222,0.0,17.857142857142858,0.0,49.337069,-55.0752,23.0952380952383,0.0
Point of Bay,26.666666666666668,0.0,25.0,0.0,49.295709,-55.261807,27.0,0.0
Leading Tickles,27.58620689655172,0.0,20.588235294117645,2.941176470588235,49.505027,-55.453138,28.985801217038897,0.0
Point Leamington,29.66101694915254,2.5423728813559325,22.58064516129032,2.4193548387096775,49.336947,-55.399181,31.077091306724924,2.5669764898851852
Pilley's Island,20.689655172413794,0.0,9.67741935483871,0.0,49.506915,-55.731502,22.89210233592894,0.0
Triton,17.766497461928935,0.0,12.5,0.5,49.513793,-55.618698,18.819796954314825,0.0
Brighton,10.526315789473683,0.0,11.76470588235294,0.0,49.535892,-55.653406,10.27863777089783,0.0
Lushes Bight-Beaumont-Beaumont North,35.294117647058826,2.941176470588235,27.27272727272727,2.272727272727273,49.512189,-55.622047,36.898395721925226,3.0748663101604734
South Brook,27.083333333333332,0.0,20.40816326530612,0.0,49.534086,-56.191577,28.418367346938794,0.0
Robert's Arm,25.0,2.5,23.17073170731707,1.2195121951219512,49.485345,-55.812693,25.365853658536594,2.756097560975718
Springdale,28.05755395683453,3.956834532374101,21.771217712177123,2.5830258302583027,49.534086,-56.191577,29.31482120576584,4.231596272797333
Port Anson,23.076923076923077,0.0,29.411764705882355,0.0,49.535547,-55.837691,21.809954751131045,0.0
Little Bay,33.33333333333333,0.0,22.22222222222222,0.0,52.89,-60.511,35.55555555555566,0.0
Beachside,37.03703703703704,0.0,26.666666666666668,0.0,52.89,-60.511,39.11111111111131,0.0
King's Point,20.0,1.5384615384615383,16.923076923076923,0.0,49.534086,-56.191577,20.615384615384755,1.8461538461538112
Nippers Harbour,11.11111111111111,0.0,15.384615384615383,0.0,49.78615,-55.862095,10.25641025641039,0.0
Burlington,21.875,0.0,16.666666666666664,2.7777777777777777,49.751856,-56.026532,22.91666666666697,0.0
Middle Arm,16.666666666666664,0.0,10.416666666666668,0.0,49.704277,-56.089503,17.916666666666515,0.0
Fleur de Lys,32.0,0.0,26.923076923076923,3.8461538461538463,50.122322,-56.130061,33.015384615384846,0.0
LaScie,21.428571428571427,1.1904761904761905,15.909090909090908,2.272727272727273,49.955826,-55.596101,22.532467532467763,0.9740259740260058
Brent's Cove,20.0,0.0,11.76470588235294,0.0,49.935455,-55.71329,21.647058823529733,0.0
Pacquet,29.411764705882355,0.0,22.22222222222222,0.0,49.991176,-55.885458,30.849673202614213,0.0
Baie Verte,21.53846153846154,2.307692307692308,18.51851851851852,2.2222222222222223,49.937688,-56.195098,22.142450142450343,2.3247863247863307
Coachman's Cove,22.22222222222222,0.0,37.5,0.0,50.060659,-56.157894,19.16666666666697,0.0
Westport,25.0,0.0,24.0,0.0,49.787353,-56.636185,25.19999999999999,0.0
Ming's Bight,21.21212121212121,0.0,15.151515151515152,0.0,49.975862,-56.049215,22.424242424242493,0.0
Woodstock,35.0,0.0,22.22222222222222,0.0,49.966058,-55.882371,37.55555555555566,0.0
Miles Cove,30.0,0.0,16.666666666666664,0.0,49.542169,-55.780219,32.66666666666606,0.0
Fogo Island,23.981900452488688,2.262443438914027,20.425531914893615,2.553191489361702,49.713908,-54.275593,24.69317416000763,2.2042938288244898
Englee,28.30188679245283,0.0,23.636363636363637,1.818181818181818,50.732398,-56.105916,29.234991423670635,0.0
Roddickton-Bide Arm,24.0,2.0,18.95734597156398,2.3696682464454977,50.818055,-56.096467,25.008530805687087,1.9260663507108973
Conche,29.411764705882355,5.88235294117647,23.52941176470588,0.0,50.885056,-55.895085,30.588235294117567,7.058823529411711
Trout River,21.62162162162162,1.8018018018018016,17.391304347826086,2.608695652173913,49.470971,-58.12629,22.467685076380576,1.64042303172738
"Woody Point, Bonne Bay",38.46153846153847,0.0,29.629629629629623,0.0,49.500731,-57.918283,40.227920227920094,0.0
Norris Point,27.692307692307693,1.5384615384615383,20.0,1.5384615384615383,49.527034,-57.884009,29.230769230769056,1.5384615384615383
Rocky Harbour,22.47191011235955,0.0,16.483516483516482,0.0,49.590165,-57.916398,23.66958883812822,0.0
Daniel's Harbour,25.925925925925924,3.7037037037037033,22.22222222222222,0.0,50.230075,-57.589061,26.666666666666515,4.444444444444571
Cow Head,23.809523809523807,0.0,17.391304347826086,2.1739130434782608,49.913694,-57.793195,25.093167701863422,0.0
Hawke's Bay,24.24242424242424,3.0303030303030303,20.0,0.0,50.606149,-57.171774,25.09090909090901,3.6363636363637397
Port Saunders,22.22222222222222,3.1746031746031744,19.696969696969695,1.5151515151515151,50.647769,-57.302712,22.727272727272634,3.5064935064934843
Port au Choix,24.050632911392405,0.0,13.414634146341465,0.0,50.702755,-57.363275,26.17783266440256,0.0
Anchor Point,17.46031746031746,0.0,13.636363636363637,0.0,51.238341,-56.790229,18.225108225108215,0.0
Flower's Cove,40.74074074074074,5.555555555555555,30.64516129032258,6.451612903225806,51.297579,-56.729741,42.75985663082474,5.376344086021504
Bird Cove,21.052631578947366,5.263157894736842,21.052631578947366,0.0,51.029852,-56.954526,21.052631578947366,6.315789473684163
Main Brook,36.0,0.0,22.22222222222222,3.7037037037037033,51.184232,-56.019227,38.755555555555475,0.0
St. Anthony,21.86046511627907,2.3255813953488373,16.52173913043478,1.7391304347826086,52.89,-60.511,22.928210313447835,2.442871587462065
Glenburnie-Birchy Head-Shoal Brook,28.000000000000004,0.0,31.03448275862069,3.4482758620689653,49.4702,-57.919314,27.393103448275724,0.0
Raleigh,30.0,0.0,28.57142857142857,0.0,51.559155,-55.729009,30.285714285714334,0.0
Goose Cove East,16.666666666666664,0.0,14.285714285714285,0.0,52.89,-60.511,17.142857142857224,0.0
Bellburns,50.0,0.0,33.33333333333333,0.0,50.335509,-57.533217,53.33333333333394,0.0
River of Ponds,21.73913043478261,0.0,20.0,0.0,50.525491,-57.402112,22.086956521739125,0.0
L'Anse au Loup,23.636363636363637,3.636363636363636,16.666666666666664,0.0,51.52444,-56.832157,25.030303030303003,4.36363636363626
Red Bay,23.52941176470588,0.0,22.22222222222222,0.0,51.730835,-56.425863,23.790849673202672,0.0
L'Anse-au-Clair,25.0,5.0,22.22222222222222,0.0,51.430023,-57.065414,25.555555555555657,6.0
Forteau,30.952380952380953,2.380952380952381,26.82926829268293,4.878048780487805,51.472671,-56.957248,31.77700348432063,1.8815331010453065
Pinware,12.5,0.0,18.181818181818183,0.0,52.89,-60.511,11.363636363636033,0.0
Port Hope Simpson,15.0,0.0,11.627906976744184,0.0,52.55361,-56.301632,15.674418604651237,0.0
St. Lewis,17.94871794871795,0.0,9.75609756097561,0.0,52.89,-60.511,19.587242026266267,0.0
Mary's Harbour,19.35483870967742,0.0,15.789473684210526,0.0,52.305148,-55.835977,20.067911714770844,0.0
"Cartwright, Labrador",15.217391304347828,0.0,13.20754716981132,0.0,53.707725,-57.002844,15.619360131255121,0.0
Charlottetown (Labrador),10.714285714285714,0.0,10.344827586206897,0.0,48.436929,-54.008143,10.788177339901466,0.0
North West River,16.666666666666664,1.8518518518518516,12.727272727272728,0.0,53.52574,-60.144849,17.454545454545496,2.2222222222222854
Happy Valley-Goose Bay,10.656753407682777,0.4956629491945477,8.71934604904632,0.2724795640326975,53.294371,-60.35929,11.044234879410055,0.5402996262269113
Labrador City,8.310249307479225,0.2770083102493075,5.7026476578411405,0.2715546503733876,52.942446,-66.90166,8.831769637406978,0.27809904222449133
Wabush,8.55614973262032,0.0,5.0,0.0,52.909558,-66.87514,9.26737967914437,0.0
Rigolet,10.0,0.0,3.3333333333333335,0.0,54.179806,-58.427419,11.33333333333303,0.0
Postville,16.666666666666664,0.0,9.090909090909092,0.0,54.895989,-59.830914,18.181818181818016,0.0
Makkovik,8.108108108108109,0.0,8.571428571428571,0.0,55.073315,-59.173842,8.015444015444018,0.0
Hopedale,3.508771929824561,0.0,5.660377358490567,0.0,55.458899,-60.211089,3.0784508440913214,0.0
Nain,7.82608695652174,0.0,5.64516129032258,0.0,56.643148,-61.861249,8.262272089761609,0.0
Murray Harbour,36.0,4.0,30.303030303030305,3.0303030303030303,46.011149,-62.522363,37.13939393939381,4.193939393939388
Murray River,21.875,0.0,20.0,2.857142857142857,45.993353,-62.652868,22.25,0.0
Montague,31.363636363636367,6.8181818181818175,27.96208530805687,5.687203791469194,46.118735,-62.533961,32.043946574752226,7.044377423524338
Cardigan,15.384615384615383,0.0,9.375,0.0,46.244991,-62.633019,16.586538461538566,0.0
Georgetown,15.789473684210526,0.0,12.06896551724138,0.0,46.200516,-62.5551,16.533575317604345,0.0
Souris,30.8411214953271,7.476635514018691,23.846153846153847,8.461538461538462,46.354681,-62.253464,32.240115025161685,7.279654924514716
Morell,17.24137931034483,0.0,13.333333333333334,0.0,46.394623,-62.725295,18.022988505747207,0.0
Meadowbank,29.411764705882355,2.941176470588235,12.12121212121212,0.0,46.200814,-63.228083,32.86987522281652,3.5294117647058556
Crapaud,37.5,12.5,31.88405797101449,14.492753623188406,46.240004,-63.500215,38.62318840579701,12.10144927536237
Hunter River,25.71428571428571,2.857142857142857,20.0,0.0,46.354948,-63.34898,26.857142857142662,3.428571428571331
North Rustico,34.42622950819672,2.459016393442623,32.758620689655174,3.4482758620689653,46.458288,-63.313088,34.759751271904975,2.2611644997173244
Brackley,15.789473684210526,0.0,14.705882352941178,0.0,46.257798,-63.159251,16.006191950464427,0.0
Union Road,15.0,0.0,8.333333333333332,0.0,46.324246,-63.13303,16.33333333333303,0.0
Mount Stewart,14.285714285714285,0.0,9.090909090909092,0.0,46.339675,-62.871604,15.324675324675354,0.0
Warren Grove,13.88888888888889,0.0,11.11111111111111,0.0,46.278338,-63.219695,14.44444444444457,0.0
Charlottetown,19.684166782102785,3.0336611719074664,17.40451388888889,3.038194444444444,46.244163,-63.14837,20.140097360745585,3.0327545174000714
Stratford,16.99604743083004,1.9762845849802373,14.317673378076062,2.348993288590604,46.220945,-63.087906,17.53172224138075,1.901742844258166
Cornwall,15.060804490177738,0.841908325537886,11.132623426911907,0.4840271055179089,46.255045,-63.251431,15.846440702830705,0.9134845695418505
Borden-Carleton,17.80821917808219,0.0,16.0,1.3333333333333337,46.253763,-63.692162,18.16986301369866,0.0
Kinkora,15.625,0.0,12.903225806451612,3.225806451612903,46.322,-63.603,16.16935483870975,0.0
Kensington,26.900584795321635,5.263157894736842,24.528301886792452,5.031446540880504,46.437732,-63.635686,27.375041377027514,5.309500165508112
Bedeque and Area,18.0327868852459,0.0,14.516129032258066,0.0,46.336272,-63.719483,18.736118455843325,0.0
Miscouche,17.441860465116278,1.162790697674419,15.555555555555555,1.1111111111111112,46.43265,-63.867817,17.819121447028465,1.1731266149870798
Summerside,22.757923128792985,3.0006743088334455,18.779661016949152,2.8135593220338984,46.42067,-63.799492,23.553575551161885,3.0380973061933503
Wellington,33.33333333333333,8.333333333333332,25.64102564102564,2.564102564102564,46.435728,-64.107575,34.87179487179492,9.487179487179219
Tyne Valley,22.0,6.0,17.77777777777778,6.666666666666667,46.576613,-63.929175,22.844444444444434,5.866666666666617
O'Leary,26.38888888888889,5.555555555555555,23.52941176470588,2.941176470588235,46.726659,-64.169778,26.9607843137253,6.078431372548948
Alberton,33.18777292576419,3.930131004366813,25.991189427312776,4.405286343612335,46.88722,-64.048979,34.62708962545412,3.8350999365177074
Tignish,31.343283582089555,4.477611940298507,25.675675675675674,4.054054054054054,46.975623,-64.073813,32.47680516337232,4.562323517547412
Miminegash,25.0,0.0,21.052631578947366,0.0,46.876729,-64.223299,25.789473684210634,0.0
Barrington,22.27204783258595,2.9895366218236172,17.360114777618367,2.1520803443328553,43.563708,-65.598018,23.254434443579385,3.1570278773217524
Clark's Harbour,22.666666666666664,2.666666666666667,19.753086419753085,3.7037037037037033,43.420892,-65.6201,23.249382716049467,2.459259259259227
Shelburne,25.874125874125873,3.4965034965034967,20.6583427922815,3.40522133938706,43.746545,-65.30376,26.917282490494472,3.5147599279267894
Lockeport,38.983050847457626,8.47457627118644,37.5,10.9375,43.719372,-65.10942,39.27966101694926,7.981991525423609
Yarmouth,22.39715591670899,2.488572879634332,17.911924789708063,2.2266204849084614,43.84216,-66.101612,23.29420214210927,2.5409633585795035
Digby,23.54609929078014,1.702127659574468,19.183673469387756,1.6326530612244898,44.586758,-65.777666,24.418584455058635,1.7160225792444663
Queens,29.439696106362774,3.988603988603988,23.7410071942446,3.6870503597122304,45.146,-63.332,30.579433888786298,4.0489147143823345
"Annapolis, Subd. D",22.036727879799667,1.5025041736227045,18.79310344827586,1.206896551724138,44.71119,-65.49312,22.68545276610439,1.5616256980024161
"Annapolis, Subd. A",30.69053708439898,2.7280477408354646,24.20965058236273,2.6622296173044924,44.71119,-65.49312,31.986714384805964,2.741211365541659
Annapolis Royal,46.93877551020408,6.122448979591836,37.5,5.208333333333334,44.71119,-65.49312,48.826530612244824,6.305272108843553
"Annapolis, Subd. B",28.764044943820227,4.269662921348314,24.23913043478261,4.021739130434782,44.71119,-65.49312,29.669027845627852,4.319247679531031
"Annapolis, Subd. C",21.313131313131315,1.9191919191919191,18.843469591226324,1.8943170488534395,44.71119,-65.49312,21.807063657512344,1.9241668932596152
Middleton,32.5,7.5,32.98429319371728,7.853403141361256,45.010397,-65.089237,32.40314136125653,7.429319371727729
Lunenburg,24.282828282828284,2.5454545454545454,19.80079681274901,2.589641434262948,44.339508,-64.322186,25.17923457684401,2.5366171676928637
Bridgewater,23.46153846153846,3.3333333333333335,20.31662269129288,3.16622691292876,44.388727,-64.539085,24.090521615587477,3.3667546174142586
Mahone Bay,33.33333333333333,3.3333333333333335,28.39506172839506,3.7037037037037033,44.448808,-64.356815,34.320987654321016,3.2592592592592666
Chester,26.91561590688652,2.8612997090203685,21.9443133553563,2.5011798017932985,44.546333,-64.241775,27.909876417192663,2.933323690465784
"Kings, Subd. A",17.70551038843722,1.1743450767841013,14.757103574702109,0.9624197983501376,45.146,-63.332,18.29519175118412,1.2167301324709001
Berwick,37.27598566308244,10.03584229390681,32.72727272727273,10.909090909090908,45.0257,-64.748069,38.185728250244665,9.861192570870003
"Kings, Subd. C",20.128205128205128,1.0256410256410255,15.929203539823009,1.0113780025284451,45.146,-63.332,20.968005445881545,1.028493630263542
Kentville,22.31075697211155,4.143426294820717,20.607553366174056,3.858784893267652,45.079013,-64.496766,22.651397693299145,4.2003545751313425
"Kings, Subd. B",18.887015177065766,1.475548060708263,15.638031693077563,1.376146788990826,45.146,-63.332,19.53681187386337,1.495428315051747
"Kings, Subd. D",23.371647509578544,2.8735632183908044,19.230769230769234,2.019230769230769,45.146,-63.332,24.199823165340604,3.0444297082228218
Wolfville,30.53763440860215,7.956989247311828,26.190476190476193,7.35930735930736,45.08847,-64.379326,31.407066052227265,8.076525624912705
West Hants,19.362186788154897,1.5294500488122356,16.48172323759791,1.468668407310705,45.146,-63.332,19.93827949826641,1.5416063771125401
Windsor,23.547400611620795,4.587155963302752,21.34502923976608,4.093567251461988,44.989916,-64.130682,23.987874885991687,4.6858737056709
East Hants,15.63330380868025,1.5057573073516386,12.53393665158371,1.1764705882352942,45.146,-63.332,16.253177240099603,1.5716146511749116
Halifax,14.39475436709185,1.2038317709133752,11.74271548638545,1.0499244372564096,44.699091,-63.662059,14.925162143233138,1.2346132376447727
"Colchester, Subd. C",19.021739130434785,1.2422360248447204,15.232292460015232,0.99009900990099,45.146,-63.332,19.77962846451851,1.2926634278334745
Stewiacke,23.28767123287671,4.10958904109589,22.14765100671141,3.3557046979865772,45.166388,-63.284687,23.515675278109768,4.260365909717734
Truro,25.0815660685155,4.771615008156607,22.065532973869765,4.106180008295313,45.36918,-63.303498,25.68477268744482,4.904702008128879
"Colchester, Subd. B",21.41787319021468,2.845731402895656,17.834078489816193,2.483854942871337,45.146,-63.332,22.13463213029422,2.9181066949005015
"Colchester, Subd. A",22.832369942196532,2.023121387283237,18.792866941015088,2.05761316872428,45.146,-63.332,23.640270542432745,2.016223030995029
Parrsboro,29.460580912863072,4.149377593360995,26.436781609195403,4.21455938697318,45.401931,-64.203969,30.065340773596517,4.136341234638557
Amherst,25.90775269872424,5.49558390578999,23.965351299326276,5.7747834456207885,45.808688,-64.217963,26.296232978603825,5.439743997823825
Oxford,20.168067226890756,2.5210084033613445,20.0,3.91304347826087,45.736815,-63.866838,20.2016806722689,2.2426013883815585
"Pictou, Subd. A",25.349794238683128,1.8930041152263373,19.53125,1.640625,45.478903,-62.654159,26.51350308641986,1.943479938271608
Pictou,26.797385620915033,3.92156862745098,20.43343653250774,2.476780185758514,45.478903,-62.654159,28.07017543859638,4.210526315789366
"Pictou, Subd. B",24.561403508771928,4.625199362041467,19.966996699669966,3.96039603960396,45.478903,-62.654159,25.480284870592186,4.758160026528969
Westville,18.34319526627219,1.183431952662722,12.912087912087914,0.8241758241758242,45.567826,-62.699948,19.429416737109477,1.255283178360088
Stellarton,18.02030456852792,1.015228426395939,14.457831325301203,1.4457831325301205,45.562334,-62.659574,18.732799217173124,0.9291174851690869
"Pictou, Subd. C",21.983273596176826,2.2700119474313025,17.366628830874006,2.0431328036322363,45.478903,-62.654159,22.906602549237505,2.315387776191116
New Glasgow,26.557711950970376,5.617977528089887,23.625843780135007,6.364513018322084,45.582984,-62.6454,27.144085585137645,5.46867043004346
Trenton,21.34387351778656,2.371541501976284,18.28358208955224,1.8656716417910448,45.61522,-62.638005,21.955931803433486,2.4727154740133415
Guysborough,32.54817987152035,3.3190578158458246,26.326326326326328,2.8028028028028027,45.376485,-61.973715,33.79255058055924,3.422308818454411
Mulgrave,22.857142857142858,1.4285714285714286,18.75,2.5,45.613154,-61.391298,23.67857142857133,1.2142857142857224
"Antigonish, Subd. A",20.118343195266274,2.0118343195266273,15.01787842669845,1.7878426698450536,45.60818,-61.983097,21.138436148979736,2.0566326494629408
Antigonish,22.081218274111674,3.0456852791878175,17.24137931034483,2.4630541871921183,45.60818,-61.983097,23.049186066865104,3.162211497586952
"Antigonish, Subd. B",18.740157480314963,2.047244094488189,13.671274961597543,1.6897081413210446,45.60818,-61.983097,19.75393398405845,2.11875128512159
"Inverness, Subd. C",25.23076923076923,1.2307692307692308,18.8953488372093,1.4534883720930232,46.231245,-61.304527,26.497853309481343,1.1862254025044763
Port Hawkesbury,25.149700598802394,3.892215568862276,18.0,3.428571428571429,45.631745,-61.377069,26.57964071856304,3.98494439692044
"Inverness, Subd. B",26.57200811359026,2.535496957403651,21.282798833819243,2.818270165208941,46.231245,-61.304527,27.629849969544466,2.478942315842602
"Inverness, Subd. A",28.48360655737705,2.0491803278688523,22.39685658153242,1.37524557956778,46.231245,-61.304527,29.700956552545904,2.1839672775290637
"Richmond, Subd. C",26.190476190476193,3.3333333333333335,22.036474164133736,3.0395136778115504,43.837787,-66.081117,27.021276595744666,3.3920972644376945
"Richmond, Subd. A",29.23497267759563,3.0054644808743167,23.733333333333334,2.4,43.837787,-66.081117,30.335300546448252,3.1265573770492097
"Richmond, Subd. B",31.506849315068493,3.4246575342465753,25.806451612903224,3.225806451612903,43.837787,-66.081117,32.646928855501756,3.464427750773325
Membertou 28B,5.41871921182266,0.0,3.825136612021858,0.0,46.120367,-60.191329,5.737435731782853,0.0
Eskasoni 3,4.923076923076923,0.0,2.786377708978328,0.0,45.928074,-60.649081,5.350416765896625,0.0
Cape Breton,23.66760354245108,2.8901734104046244,20.015400410677618,2.7361396303901437,44.457496,-65.807138,24.398044168805882,2.9209801664075172
Saint Martins,19.469026548672566,1.7699115044247788,13.91304347826087,0.0,46.41648,-64.826937,20.58022316275492,2.1238938053097627
St. Martins,26.923076923076923,0.0,13.79310344827586,3.4482758620689653,46.41648,-64.826937,29.549071618037487,0.0
Simonds,13.541666666666666,0.5208333333333333,9.511568123393316,0.2570694087403599,46.311338,-67.546389,14.347686375321246,0.5735861182519244
Saint John,19.186089530151683,2.9226785053644098,16.864116471595775,2.7904653154439054,45.39677,-65.98223,19.650484141862876,2.9491211433485063
Musquash,18.907563025210084,1.680672268907563,15.0,1.6666666666666667,45.167968,-66.36028,19.68907563025209,1.6834733893557425
Grand Manan,23.076923076923077,0.0,21.428571428571427,0.0,44.686904,-66.757181,23.4065934065934,0.0
Campobello Island,23.563218390804597,4.022988505747127,22.162162162162165,2.702702702702702,45.963794,-66.643365,23.843429636533074,4.287045666356107
West Isles,20.98765432098765,0.0,20.0,1.3333333333333337,46.617,-66.378,21.185185185185162,0.0
Lepreau,27.536231884057973,2.898550724637681,17.80821917808219,1.36986301369863,45.166271,-66.500062,29.481834425253055,3.204288266825415
Pennfield,17.061611374407583,0.4739336492890995,14.285714285714285,1.3824884792626728,45.113394,-66.760427,17.616790792146276,0.29222268329442613
Blacks Harbour,17.647058823529413,2.3529411764705883,13.541666666666666,2.083333333333333,45.077001,-66.769009,18.468137254902103,2.4068627450980387
Clarendon,33.33333333333333,0.0,20.0,0.0,45.496339,-66.463301,36.0,0.0
Saint Patrick,20.8955223880597,0.0,17.46031746031746,3.1746031746031744,46.617,-66.378,21.58256337360808,0.0
Saint Andrews,23.636363636363637,1.818181818181818,18.0327868852459,0.0,46.166692,-64.254662,24.757078986587203,2.18181818181813
Saint Croix,20.634920634920633,0.0,15.254237288135592,1.694915254237288,46.432471,-64.706768,21.7110573042778,0.0
Dufferin,23.333333333333332,3.3333333333333335,20.967741935483872,3.225806451612903,46.617,-66.378,23.806451612903174,3.3548387096774164
Saint Stephen,17.983651226158038,2.17983651226158,15.326633165829143,2.0100502512562812,46.617,-66.378,18.515054838223932,2.213793764462636
St. Stephen,22.083805209513024,3.9637599093997737,18.69158878504673,3.4267912772585665,46.617,-66.378,22.762248494406094,4.071153635828011
Saint James,16.93548387096774,0.8064516129032258,13.740458015267176,0.7633587786259541,46.617,-66.378,17.574489042107643,0.8150701797586812
Dumbarton,20.588235294117645,0.0,13.513513513513514,0.0,46.617,-66.378,22.003179650238508,0.0
Blissville,17.857142857142858,2.380952380952381,16.129032258064516,1.0752688172043012,46.585483,-66.059147,18.20276497695852,2.6420890937019976
Gladstone,12.244897959183673,0.0,11.76470588235294,0.0,46.16045,-64.973076,12.340936374549813,0.0
Tracy,20.33898305084746,1.694915254237288,14.754098360655735,0.0,45.673516,-66.682693,21.455959988886207,2.03389830508479
Fredericton Junction,25.0,4.411764705882353,16.901408450704224,0.0,45.963611,-66.648345,26.619718309858854,5.294117647059011
Lincoln,11.01813110181311,0.697350069735007,9.17573872472784,0.7776049766718507,45.847024,-66.527882,11.38660957723016,0.681299088347636
Burton,12.548262548262548,0.9652509652509652,9.874326750448834,0.8976660682226212,45.870138,-66.362117,13.083049707825467,0.9787679446566351
Oromocto,6.746031746031746,0.6944444444444444,5.806451612903226,0.3225806451612903,45.83044,-66.509157,6.933947772657461,0.7688172043010866
Sheffield,25.0,1.1904761904761905,21.34831460674157,0.0,45.875383,-66.276532,25.7303370786517,1.428571428571388
Maugerville,15.57377049180328,0.546448087431694,10.985915492957748,0.8450704225352111,45.892788,-66.534072,16.491341491572257,0.4867236204109844
Northfield,22.58064516129032,2.4193548387096775,20.3125,1.5625,46.617,-66.378,23.0342741935483,2.5907258064515872
Gagetown,20.689655172413794,0.0,16.129032258064516,0.0,45.780058,-66.143343,21.601779755283587,0.0
Hampstead,25.925925925925924,3.7037037037037033,27.58620689655172,0.0,45.632816,-66.100044,25.59386973180085,4.444444444444571
Wickham,36.36363636363637,6.8181818181818175,27.906976744186046,2.3255813953488373,45.763783,-65.976623,38.05496828752666,7.716701902748355
Cambridge,27.692307692307693,3.076923076923077,20.967741935483872,4.838709677419355,46.617,-66.378,29.037220843672458,2.724565756823722
Cambridge-Narrows,35.39823008849557,3.5398230088495577,31.451612903225808,3.225806451612903,45.850976,-66.018004,36.187553525549674,3.602626320296892
Johnston,29.82456140350877,3.508771929824561,24.24242424242424,4.545454545454546,46.137918,-64.085493,30.94098883572542,3.3014354066985447
Brunswick,30.0,0.0,25.0,0.0,46.617,-66.378,31.0,0.0
Waterborough,30.0,2.3529411764705883,23.52941176470588,1.1764705882352942,45.905633,-66.017029,31.29411764705901,2.5882352941176237
Minto,30.638297872340424,5.106382978723404,27.692307692307693,4.615384615384616,46.097746,-66.054742,31.22749590834701,5.204582651391149
Chipman,29.347826086956523,1.0869565217391304,20.40816326530612,0.0,46.177044,-65.879394,31.13575865128678,1.3043478260869392
Upham,16.0,0.0,13.533834586466163,0.7518796992481203,45.489306,-65.676975,16.49323308270675,0.0
Hampton,15.547703180212014,1.060070671378092,12.949640287769784,1.079136690647482,45.514981,-65.839082,16.067315758700488,1.0562574675242145
Rothesay,18.181818181818183,0.0,8.823529411764707,0.0,45.39486,-65.967338,20.05347593582883,0.0
Westfield,17.24137931034483,0.9852216748768472,13.084112149532707,0.9345794392523364,46.54709,-67.308407,18.072832742507217,0.9953501220017529
Kingston,20.689655172413794,1.0344827586206895,14.432989690721648,0.3436426116838488,45.508504,-65.948635,21.94098826875188,1.1726507880081272
Grand Bay-Westfield,17.01913393756294,1.5105740181268883,14.0625,1.3671875,46.222621,-64.346156,17.610460725075654,1.5392513217522605
Norton,16.538461538461537,1.5384615384615383,13.127413127413126,1.1583011583011582,45.653377,-65.787467,17.220671220671193,1.6144936144935969
Sussex,15.32258064516129,2.0161290322580645,13.095238095238097,2.380952380952381,45.713467,-65.504217,15.768049155145832,1.9431643625192123
Sussex Corner,26.027397260273972,2.3972602739726026,20.333333333333332,2.0,45.720981,-65.468118,27.166210045661956,2.476712328767121
Waterford,22.448979591836736,2.0408163265306123,17.02127659574468,0.0,45.698406,-65.403155,23.53452019105498,2.4489795918367463
Cardwell,20.714285714285715,0.0,17.24137931034483,2.068965517241379,46.617,-66.378,21.408866995073822,0.0
Havelock,19.047619047619047,0.9523809523809524,16.23931623931624,0.8547008547008548,46.042397,-65.423152,19.60927960927961,0.9719169719169685
Studholm,19.602272727272727,2.272727272727273,15.789473684210526,2.4930747922437675,46.617,-66.378,20.364832535885398,2.228657768823979
Springfield,20.0,2.0,17.058823529411764,2.3529411764705883,45.786873,-65.345307,20.588235294117567,1.9294117647058897
Kars,21.21212121212121,0.0,20.0,7.5,45.558443,-66.005034,21.454545454545496,0.0
Quispamsis,15.834218916046758,2.497343251859724,11.44578313253012,1.9715224534501643,45.431993,-65.970275,16.711906072750025,2.6025074115416373
Riverside-Albert,34.21052631578947,10.526315789473683,30.76923076923077,7.6923076923076925,45.756335,-64.719369,34.89878542510132,11.093117408906892
Harvey,35.294117647058826,2.941176470588235,27.027027027027028,0.0,46.617,-66.378,36.94753577106576,3.5294117647058556
Alma,28.57142857142857,0.0,25.0,0.0,45.608769,-64.94905,29.28571428571422,0.0
Elgin,25.609756097560975,2.4390243902439024,21.50537634408602,4.301075268817205,45.800906,-65.10976,26.430632048255802,2.0666142145291815
Hillsborough,20.437956204379564,0.7299270072992701,14.084507042253522,1.4084507042253522,45.923261,-64.656558,21.708646036804566,0.5942222679140627
Coverdale,17.312072892938495,1.366742596810934,12.585812356979408,1.1441647597254003,46.617,-66.378,18.257325000130322,1.4112581642280446
Riverview,21.154779233381856,3.2508491023774866,17.256857855361595,2.892768079800499,46.04753,-64.781857,21.934363508986053,3.3224653068928944
Westmorland,23.756906077348063,1.6574585635359116,19.170984455958543,2.072538860103627,46.617,-66.378,24.674090401626017,1.574442504222361
Port Elgin,22.5,2.5,24.390243902439025,4.878048780487805,46.046353,-64.088946,22.12195121951231,2.0243902439025305
Botsford,31.132075471698112,2.358490566037736,26.51162790697674,1.8604651162790695,46.617,-66.378,32.05616498464224,2.4580956559894673
Beaubassin East,19.457735247208937,1.116427432216906,15.136876006441224,0.966183574879227,46.617,-66.378,20.321907095362576,1.1464762036844434
Cap-Pel√©,21.443298969072163,3.5051546391752577,17.25663716814159,1.991150442477876,46.213848,-64.288732,22.280631329258085,3.8079554785148275
Sackville,19.166666666666668,0.8333333333333334,14.5985401459854,0.7299270072992701,45.907422,-64.379068,20.080291970803046,0.8540145985401466
Dorchester,18.6046511627907,0.0,17.02127659574468,2.127659574468085,45.892659,-64.52048,18.921326076199875,0.0
Memramcook,18.1151832460733,1.9895287958115184,15.734989648033126,2.484472049689441,46.005469,-64.52457,18.59122196568137,1.8905401450359136
Shediac,22.44258872651357,1.4613778705636742,17.497456765005087,1.017293997965412,46.21083,-64.546468,23.431615118815216,1.5501946450833088
Moncton,15.36144578313253,0.5020080321285141,11.238293444328823,0.6243496357960457,46.114705,-64.73508,16.186076250893166,0.4775397113950106
Salisbury,19.06158357771261,2.932551319648094,16.3265306122449,2.623906705539359,46.03387,-65.025557,19.608594170805873,2.9942802424698414
Petitcodiac,25.34246575342466,5.47945205479452,25.161290322580644,4.516129032258064,45.94893,-65.169582,25.378700839593456,5.672116659301764
Dieppe,12.185215272136476,1.2185215272136474,9.911111111111111,1.0666666666666669,46.08255,-64.707258,12.640036104341561,1.2488924993230412
Dundas,23.037974683544306,2.278481012658228,17.647058823529413,1.4705882352941175,46.16045,-64.973076,24.116157855547044,2.440059568131062
Cocagne,24.71698113207547,1.8867924528301887,20.28688524590164,2.0491803278688523,46.359543,-64.616151,25.60300030931012,1.8543148778224605
Bouctouche,26.506024096385545,4.016064257028113,25.384615384615383,5.0,46.483802,-64.725386,26.730305838739582,3.8192771084337096
Saint Mary,22.22222222222222,1.932367149758454,18.62745098039216,1.96078431372549,45.887243,-67.489516,22.94117647058806,1.9266837169650461
Saint-Antoine,20.481927710843372,3.0120481927710845,18.072289156626507,4.216867469879518,46.166692,-64.254662,20.96385542168673,2.771084337349407
Saint-Paul,17.28395061728395,2.4691358024691357,20.0,2.3529411764705883,46.335775,-64.939816,16.740740740740875,2.492374727668839
Harcourt,35.294117647058826,2.941176470588235,22.5,0.0,46.460599,-65.237638,37.85294117647118,3.5294117647058556
Weldford,23.13432835820895,1.4925373134328357,18.250950570342205,1.520912547528517,46.617,-66.378,24.11100391578225,1.4868622666136986
Richibucto,23.87267904509284,2.3872679045092835,19.64735516372796,1.5113350125944585,45.938824,-66.591537,24.717743821365957,2.562454482892292
Rexton,30.23255813953488,6.976744186046512,27.27272727272727,6.8181818181818175,46.644875,-64.86087,30.82452431289653,7.008456659619448
Saint-Charles,22.058823529411764,0.4901960784313725,17.733990147783253,0.4926108374384236,46.644656,-65.055808,22.923790205737532,0.48971312662996236
Saint-Louis,29.05027932960894,7.262569832402235,20.588235294117645,4.117647058823529,46.762013,-65.011143,30.742688136706875,7.8915543871178215
Saint-Louis de Kent,22.07792207792208,0.0,25.0,4.545454545454546,46.745019,-64.982126,21.49350649350663,0.0
Acadieville,22.36842105263158,2.631578947368421,19.753086419753085,0.0,46.768463,-65.289012,22.89148797920734,3.1578947368420813
Hardwicke,23.40909090909091,2.0454545454545454,18.064516129032256,1.7204301075268815,47.049077,-65.011947,24.47800586510266,2.110459433040063
Glenelg,21.153846153846153,1.9230769230769231,16.459627329192546,2.1739130434782608,46.617,-66.378,22.09268991877707,1.872909698996665
Derby,29.292929292929298,5.05050505050505,20.2020202020202,3.0303030303030303,46.888593,-65.653868,31.111111111111313,5.454545454545382
Rogersville,16.19047619047619,1.9047619047619049,13.79310344827586,0.8620689655172413,46.725124,-65.42171,16.669950738916214,2.11330049261079
Blackville,22.018348623853218,1.376146788990826,16.39344262295082,0.819672131147541,46.738949,-65.841921,23.14332982403357,1.4874417205595023
Blissfield,26.373626373626376,3.296703296703297,23.0,2.0,46.585483,-66.059147,27.048351648351627,3.5560439560439363
Doaktown,26.25,2.5,30.37974683544304,2.5316455696202533,46.556209,-66.127685,25.42405063291153,2.4936708860759484
Southesk,20.710059171597635,2.9585798816568047,13.978494623655912,2.6881720430107525,46.929368,-65.927487,22.056372081186055,3.01266144938603
Upper Miramichi,27.149321266968325,2.262443438914027,22.97872340425532,2.127659574468085,47.015064,-65.566433,27.983440839510877,2.289400211803212
Northesk,21.145374449339208,2.2026431718061676,17.67241379310345,1.293103448275862,46.617,-66.378,21.83996658058618,2.3845511165122844
Newcastle,20.72072072072072,0.0,14.166666666666666,0.8333333333333334,46.617,-66.378,22.031531531531527,0.0
Alnwick,23.35164835164835,2.4725274725274726,19.49602122015915,2.3872679045092835,46.617,-66.378,24.12277377794635,2.4895793861311084
Neguac,24.096385542168676,3.0120481927710845,19.27710843373494,1.8072289156626504,47.275193,-65.049434,25.06024096385545,3.2530120481928293
Miramichi,23.809523809523807,2.7944111776447107,19.736103312745648,2.582818641212802,47.015064,-65.566433,24.62420790887927,2.836729684931086
New Maryland,13.565891472868216,0.3875968992248062,12.34567901234568,1.2345679012345678,45.903574,-66.678055,13.809933964972743,0.21820269882283583
McAdam,24.545454545454547,4.545454545454546,21.774193548387096,4.032258064516129,45.586425,-67.337514,25.099706744868172,4.648093841642208
North Lake,37.5,0.0,20.0,0.0,45.827974,-67.731878,41.0,0.0
Canterbury,24.489795918367346,2.0408163265306123,21.052631578947366,1.7543859649122806,45.886896,-67.466641,25.177228786251362,2.0981023988542944
Meductic,17.647058823529413,5.88235294117647,15.384615384615383,0.0,45.987544,-67.471699,18.099547511312267,7.058823529411711
Dumfries,29.411764705882355,2.941176470588235,27.027027027027028,0.0,45.921912,-67.073755,29.888712241653366,3.5294117647058556
Prince William,23.59550561797753,2.247191011235955,20.87912087912088,3.296703296703297,45.87983,-66.983517,24.138782565748897,2.037288554142492
Hanwell,12.31578947368421,0.5263157894736842,8.333333333333332,0.6329113924050633,45.926495,-66.755722,13.112280701754571,0.5049966688874079
Kingsclear,16.134751773049647,1.2411347517730498,12.476370510396976,0.945179584120983,45.86358,-66.832274,16.866428025580035,1.3003257853034569
Queensbury,20.851063829787233,1.702127659574468,15.68627450980392,0.7843137254901961,46.617,-66.378,21.88402169378378,1.8856904463912656
Southampton,22.2972972972973,2.027027027027027,17.763157894736842,1.9736842105263157,45.965564,-67.252541,23.204125177809374,2.037695590327168
Millville,23.333333333333332,3.3333333333333335,18.75,3.125,46.132754,-67.19715,24.25,3.375
Douglas,15.109666937449228,0.974817221770918,12.171052631578949,0.986842105263158,45.998165,-66.572638,15.697389798623362,0.9724122450724701
Saint Marys,11.89245087900724,0.5170630816959669,9.609292502639915,0.5279831045406547,46.617,-66.378,12.349082554280812,0.5148790771270297
Fredericton,19.77752331097661,3.38622607557664,17.39204064352244,3.2853513971210835,45.963611,-66.648345,20.25461984446747,3.4064010112677536
Stanley,20.0,2.5,15.294117647058824,2.3529411764705883,46.271942,-66.736026,20.94117647058829,2.529411764705884
Nackawic,28.421052631578945,3.1578947368421053,20.5607476635514,1.8691588785046729,46.000747,-67.244312,29.993113625184378,3.415641908509656
Richmond,18.076923076923077,1.153846153846154,13.970588235294118,1.4705882352941175,46.617,-66.378,18.89819004524884,1.0904977375565466
Northampton,14.705882352941178,0.5882352941176471,13.966480446927374,1.675977653631285,46.129389,-67.563934,14.853762734143913,0.3706868222149069
Hartland,28.431372549019606,7.84313725490196,22.54901960784314,8.823529411764707,46.304486,-67.513904,29.607843137254804,7.647058823529392
Wakefield,18.083182640144667,1.4466546112115732,12.788632326820604,1.5985790408525755,46.262158,-67.512457,19.14209270280935,1.416269725283371
Wilmot,16.666666666666664,1.96078431372549,12.727272727272728,0.9090909090909092,46.276459,-67.760719,17.454545454545496,2.1711229946524213
Centreville,23.423423423423426,4.504504504504505,22.93577981651376,3.669724770642202,46.425329,-67.705159,23.520952144805364,4.671460451276971
Peel,17.355371900826448,2.479338842975207,15.57377049180328,2.459016393442623,46.346131,-67.551691,17.711692182631054,2.483403332881723
Florenceville-Bristol,16.560509554140125,1.910828025477707,14.19753086419753,2.4691358024691357,46.441027,-67.607788,17.033105292128653,1.799166470079399
Kent,18.561484918793504,1.3921113689095126,15.401785714285715,1.7857142857142856,46.617,-66.378,19.19342475969529,1.3133907855485631
Bath,25.0,4.545454545454546,21.153846153846153,3.8461538461538463,46.500792,-67.581344,25.769230769230717,4.685314685314722
Wicklow,17.261904761904763,2.380952380952381,14.942528735632186,1.7241379310344829,46.497948,-67.592027,17.72577996715927,2.5123152709359147
Andover,23.333333333333332,1.1111111111111112,14.736842105263156,0.0,46.617,-66.378,25.052631578947057,1.3333333333333144
Aroostook,25.806451612903224,3.225806451612903,12.12121212121212,0.0,46.806691,-67.724827,28.543499511240952,3.870967741935374
Perth-Andover,29.245283018867923,5.9748427672955975,24.719101123595504,6.179775280898876,46.733683,-67.718753,30.15051939792238,5.933856264574928
Gordon,22.972972972972975,2.027027027027027,17.61006289308176,1.257861635220126,46.617,-66.378,24.045554988951608,2.180860105388433
Plaster Rock,24.46808510638298,3.1914893617021276,22.018348623853218,2.752293577981652,46.908288,-67.395696,24.95803240288899,3.2793285184462206
Lorne,31.11111111111111,0.0,23.52941176470588,0.0,47.873021,-66.128027,32.62745098039204,0.0
Denmark,20.52980132450331,1.9867549668874176,16.049382716049383,1.2345679012345678,46.617,-66.378,21.425885046194026,2.137192380018007
Grand Falls,15.59633027522936,1.834862385321101,15.384615384615383,1.7094017094017095,47.051483,-67.734542,15.638673253352152,1.859954520504978
Drummond,13.88888888888889,1.1574074074074074,11.333333333333332,0.8888888888888888,47.0639,-67.7261,14.400000000000091,1.2111111111111086
Saint-Andr√©,18.34862385321101,5.5045871559633035,14.035087719298245,4.385964912280701,47.086545,-67.730091,19.211331079993442,5.7283116046997975
Saint-L√©onard,13.725490196078432,0.9803921568627452,10.909090909090908,0.0,47.182867,-67.933757,14.2887700534759,1.1764705882353041
Notre-Dame-de-Lourdes,19.35483870967742,0.0,20.689655172413794,3.4482758620689653,47.251508,-67.937474,19.087875417130135,0.0
Sainte-Anne,19.387755102040817,1.020408163265306,17.17171717171717,1.0101010101010102,46.617,-66.378,19.830962688105615,1.022469593898165
Sainte-Anne-de-Madawaska,21.73913043478261,1.0869565217391304,19.387755102040817,1.020408163265306,46.166692,-64.254662,22.209405501330934,1.100266193433896
Rivi√®re-Verte,20.0,1.4285714285714286,17.333333333333336,1.3333333333333337,47.420665,-68.074166,20.53333333333353,1.4476190476190496
Saint-Basile,15.254237288135592,1.694915254237288,11.188811188811188,0.6993006993006993,47.363285,-68.287041,16.067322508000416,1.8940381652246288
Saint-Joseph,18.9873417721519,0.6329113924050633,12.334801762114536,0.0,46.617,-66.378,20.31784977415964,0.7594936708860871
Saint-Jacques,18.181818181818183,0.6269592476489028,11.25,0.625,47.423227,-68.390473,19.568181818181984,0.6273510971786833
Edmundston,25.60313630880579,3.287092882991556,20.711166562694945,2.9943855271366187,47.404667,-68.339039,26.581530258027897,3.3456343541625415
Baker-Brook,22.807017543859647,3.508771929824561,16.071428571428573,0.0,47.301915,-68.510957,24.154135338345895,4.210526315789366
Lac Baker,31.343283582089555,2.9850746268656714,23.28767123287671,1.36986301369863,47.331687,-68.612964,32.95440605193198,3.3081169494990945
Clair,24.13793103448276,3.4482758620689653,12.12121212121212,0.0,47.28931,-68.583504,26.54127481713749,4.137931034482563
Saint-Fran√ßois de Madawaska,23.91304347826087,2.1739130434782608,19.230769230769234,1.9230769230769231,47.245399,-68.699798,24.849498327759193,2.22408026755852
Colborne,31.818181818181817,0.0,25.0,0.0,46.637648,-67.705678,33.18181818181802,0.0
Charlo,27.099236641221378,2.2900763358778624,19.318181818181817,1.5151515151515151,47.981575,-66.363606,28.655447605829067,2.4450613000231556
Balmoral,14.285714285714285,0.0,9.615384615384617,0.0,47.970635,-66.399189,15.219780219780205,0.0
Dalhousie,23.474178403755868,2.3474178403755865,19.81981981981982,1.8018018018018016,48.070908,-66.377342,24.205050120543092,2.456541048090344
Eel River Crossing,19.387755102040817,1.530612244897959,15.92039800995025,0.9950248756218906,47.971236,-66.462064,20.081226520458813,1.6377297187531497
Addington,25.37313432835821,2.9850746268656714,18.30985915492958,2.8169014084507045,46.617,-66.378,26.785789363043932,3.018709270548669
Atholville,20.72829131652661,1.96078431372549,18.393782383419687,2.072538860103627,47.989785,-66.713163,21.19519310314797,1.9384334044498601
Tide Head,18.27956989247312,1.0752688172043012,15.0,1.0,47.985815,-66.7812,18.935483870968028,1.0903225806451609
Eldon,23.88059701492537,1.4925373134328357,20.833333333333336,1.3888888888888888,46.617,-66.378,24.490049751243532,1.5132669983416207
Kedgwick,18.81188118811881,0.99009900990099,16.74641148325359,0.9569377990430622,47.63865,-67.344286,19.22497512909183,0.9967312520725766
Saint-Quentin,14.98371335504886,0.9771986970684038,12.416107382550337,1.006711409395973,47.522165,-67.393232,15.49723454954858,0.9712961546028875
Belledune,31.09540636042403,2.4734982332155475,22.97734627831715,2.912621359223301,47.905376,-65.842279,32.71901837684527,2.3856736080140024
Tracadie,21.38423339540658,2.3587833643699563,16.31644004944376,2.0704573547589615,46.617,-66.378,22.397792064599116,2.4164485662921606
Allardville,22.857142857142858,0.9523809523809524,17.431192660550458,0.9174311926605504,47.474125,-65.495075,23.942332896461267,0.9593709043250325
Bathurst,21.443298969072163,0.6185567010309279,16.367265469061877,0.5988023952095809,47.620161,-65.674139,22.458505669074157,0.6225075621951968
Beresford,18.8951160928743,1.521216973578863,14.398111723052716,1.4162077104642017,47.694122,-65.687944,19.7945169668385,1.5422188262017897
Pointe-Verte,26.436781609195403,3.4482758620689653,21.21212121212121,2.0202020202020203,47.84597,-65.752442,27.481713688609943,3.7338906304423745
Petit-Rocher,30.15075376884422,3.5175879396984926,22.0,2.5,47.782339,-65.719794,31.780904522612673,3.7211055276382012
New Bandon,28.09917355371901,3.3057851239669422,21.84873949579832,2.100840336134454,46.009289,-67.540099,29.349260365303508,3.5467740815334423
Saint-Isidore,16.923076923076923,1.5384615384615383,15.671641791044776,1.4925373134328357,47.555558,-65.034967,17.173363949483303,1.5476463834672778
Inkerman,24.48132780082987,2.4896265560165975,20.33898305084746,1.694915254237288,47.634706,-64.856156,25.309796750826308,2.6485688163724603
Caraquet,22.09737827715356,2.9962546816479403,16.666666666666664,1.8115942028985508,47.790205,-64.92187,23.183520599251096,3.2331867773978615
Bas-Caraquet,26.053639846743295,3.4482758620689653,18.84057971014493,2.536231884057971,47.802423,-64.820748,27.49625187406309,3.6306846576711678
Shippagan,22.96137339055794,1.9313304721030045,16.188524590163937,1.2295081967213115,47.746347,-64.710953,24.31594315063694,2.071694927179351
Le Goulet,24.69135802469136,1.2345679012345678,18.51851851851852,1.2345679012345678,47.711607,-64.694029,25.925925925926094,1.2345679012345678
Lam√®que,31.092436974789916,3.361344537815126,21.705426356589147,3.875968992248062,47.791968,-64.651605,32.96983909842993,3.2584196469285587
Sainte-Marie-Saint-Rapha√´l,24.418604651162788,1.162790697674419,14.736842105263156,1.0526315789473684,46.41648,-64.826937,26.354957160342565,1.1848225214198322
Bertrand,27.82608695652174,3.4782608695652173,25.688073394495415,3.669724770642202,47.757352,-65.066213,28.253689668926995,3.4399680893498186
Nigadoo,23.46938775510204,1.020408163265306,17.708333333333336,1.0416666666666663,47.728477,-65.749313,24.621598639455897,1.016156462585034
Grande-Anse,32.22222222222222,5.0,25.0,4.054054054054054,47.805155,-65.21314,33.66666666666697,5.1891891891892215
Maisonnette,40.0,4.0,32.20338983050847,6.779661016949152,47.833628,-65.019715,41.55932203389784,3.4440677966101703
Grosse-√éle,18.367346938775512,2.0408163265306123,12.0,2.0,47.628769,-61.521251,19.640816326530967,2.0489795918367335
Perc√©,28.34138486312399,2.4154589371980677,22.77526395173454,2.1116138763197587,46.876014,-71.156964,29.454609045401867,2.4762279493737367
Sainte-Th√©r√®se-de-Gasp√©,24.0,2.0,22.54901960784314,2.941176470588235,48.831011,-64.491568,24.290196078431336,1.8117647058823536
Grande-Rivi√®re,24.285714285714285,2.857142857142857,20.05649717514125,2.5423728813559325,48.400363,-64.484048,25.13155770782896,2.9200968523002473
Chandler,28.49569251159708,3.5122597746852215,21.609344581440624,2.790395846852693,46.876014,-71.156964,29.87296209762826,3.656632560251751
Port-Daniel--Gascons,30.09049773755656,3.3936651583710407,24.081632653061224,2.2448979591836733,48.197582,-64.891203,31.292270754455785,3.6234185982084455
Gasp√©,19.661733615221987,1.9732205778717409,16.677966101694917,1.5593220338983051,46.876014,-71.156964,20.258487117927416,2.056000286666432
Cloridorme,29.850746268656714,2.9850746268656714,27.77777777777778,2.7777777777777777,46.876014,-71.156964,30.26533996683247,3.0265339966832414
Petite-Vall√©e,29.411764705882355,0.0,23.52941176470588,5.88235294117647,49.217839,-65.034528,30.588235294117567,0.0
Grande-Vall√©e,27.358490566037737,2.8301886792452833,18.859649122807017,2.1929824561403506,49.220986,-65.145853,29.058258854683572,2.95762992386625
Murdochville,25.384615384615383,1.5384615384615383,20.91503267973856,1.30718954248366,46.876014,-71.156964,26.27853192559064,1.5847159376571227
Sainte-Madeleine-de-la-Rivi√®re-Madeleine,41.37931034482759,3.4482758620689653,31.343283582089555,4.477611940298507,49.23938,-65.299122,43.386515697375216,3.242408646423087
Saint-Maxime-du-Mont-Louis,27.43362831858407,3.5398230088495577,20.72072072072072,1.8018018018018016,49.22655,-65.728053,28.776209838156774,3.8874272502591793
Mont-Saint-Pierre,37.5,0.0,31.57894736842105,0.0,45.334684,-73.16151,38.68421052631538,0.0
Rivi√®re-√†-Claude,46.15384615384615,0.0,23.076923076923077,0.0,49.217431,-65.889463,50.76923076923049,0.0
Marsoui,26.666666666666668,3.3333333333333335,19.35483870967742,0.0,46.876014,-71.156964,28.1290322580644,4.0
La Martre,24.0,0.0,15.384615384615383,3.8461538461538463,49.2048,-66.16445,25.72307692307686,0.0
Sainte-Anne-des-Monts,24.145962732919255,2.7950310559006213,19.971160778658977,2.1629416005767843,45.870977,-74.107348,24.98092312377139,2.9214489469653984
Cap-Chat,30.125523012552303,2.928870292887029,23.52941176470588,2.3529411764705883,49.069783,-66.738195,31.444745262121614,3.04405611617031
Shigawake,31.03448275862069,0.0,25.806451612903224,3.225806451612903,46.876014,-71.156964,32.08008898776416,0.0
Saint-Godefroi,31.57894736842105,3.9473684210526314,30.864197530864196,4.938271604938271,48.053362,-65.149978,31.721897335932454,3.7491877842755343
Hope Town,21.875,0.0,22.22222222222222,0.0,48.068828,-65.132979,21.80555555555557,0.0
Hope,29.629629629629623,1.8518518518518516,26.984126984126984,3.1746031746031744,46.876014,-71.156964,30.158730158730123,1.5873015873016811
Pasp√©biac,29.067930489731435,2.527646129541864,24.726134585289515,2.8169014084507045,46.876014,-71.156964,29.93628967061977,2.469795073760082
New Carlisle,33.33333333333333,7.801418439716312,29.71014492753623,7.971014492753622,48.008499,-65.330233,34.05797101449275,7.76749922910885
Bonaventure,25.899280575539567,4.316546762589928,22.916666666666664,5.208333333333334,46.876014,-71.156964,26.495803357314117,4.13818944844121
Saint-Elz√©ar,22.448979591836736,2.0408163265306123,17.647058823529413,0.0,46.403676,-71.067648,23.40936374549824,2.4489795918367463
Saint-Sim√©on,23.931623931623932,0.0,19.65811965811966,1.7094017094017095,48.192169,-69.097233,24.786324786324712,0.0
Caplan,25.125628140703515,3.5175879396984926,24.489795918367346,4.081632653061225,46.876014,-71.156964,25.252794585170705,3.404778997025943
Saint-Alphonse,21.73913043478261,2.898550724637681,21.73913043478261,1.4492753623188406,53.393,-71.781,21.73913043478261,3.1884057971014954
New Richmond,24.966261808367072,2.968960863697706,20.47244094488189,2.493438320209974,48.160784,-65.856452,25.865025981064036,3.0640653723952482
Cascap√©dia--Saint-Jules,21.12676056338028,2.8169014084507045,18.055555555555554,2.7777777777777777,48.253675,-65.920546,21.741001564945236,2.8247261345852905
Maria,28.31541218637993,8.60215053763441,22.55639097744361,5.639097744360902,46.876014,-71.156964,29.46721642816692,9.194761096289085
Carleton-sur-Mer,24.67866323907455,1.5424164524421593,19.680851063829788,1.5957446808510638,48.100149,-66.07777,25.67822567412327,1.5317508067603782
Nouvelle,26.993865030674847,3.6809815950920246,22.289156626506024,3.614457831325301,46.876014,-71.156964,27.934806711508827,3.6942863478453702
Escuminac,17.647058823529413,1.96078431372549,15.789473684210526,0.0,46.876014,-71.156964,18.018575851393166,2.3529411764706083
Pointe-√†-la-Croix,20.149253731343283,1.4925373134328357,15.602836879432624,2.127659574468085,48.048977,-66.704256,21.058537101725506,1.3655128612257954
Saint-Andr√©-de-Restigouche,17.647058823529413,5.88235294117647,20.0,0.0,48.04611,-66.960799,17.17647058823536,7.058823529411711
Matap√©dia,28.333333333333332,5.0,18.75,1.5625,46.876014,-71.156964,30.25,5.6875
Saint-Alexis-de-Matap√©dia,34.0,4.0,30.909090909090907,5.454545454545454,47.976827,-66.957103,34.61818181818171,3.7090909090909463
Saint-Fran√ßois-d'Assise,26.86567164179105,2.9850746268656714,20.833333333333336,1.3888888888888888,47.983882,-67.160806,28.072139303483254,3.304311774461098
L'Ascension-de-Patap√©dia,33.33333333333333,0.0,27.27272727272727,0.0,47.933482,-67.249469,34.54545454545496,0.0
Sainte-Marguerite-Marie,22.22222222222222,0.0,22.727272727272727,0.0,48.308347,-67.094137,22.121212121212125,0.0
Sainte-Florence,24.324324324324326,0.0,20.0,2.5,48.26647,-67.23238,25.189189189189165,0.0
Causapscal,26.08695652173913,3.91304347826087,20.977596741344197,2.64765784114053,46.876014,-71.156964,27.108828477818406,4.16612060568491
Albertville,10.0,0.0,18.181818181818183,4.545454545454546,46.876014,-71.156964,8.363636363636033,0.0
Saint-L√©on-le-Grand,20.61855670103093,1.0309278350515465,15.306122448979592,2.0408163265306123,45.968519,-73.388067,21.681043551441235,0.8289501367557364
Saint-Z√©non-du-Lac-Humqui,21.21212121212121,3.0303030303030303,17.142857142857142,0.0,48.256168,-67.576888,22.025974025973937,3.6363636363637397
Sainte-Ir√®ne,15.151515151515152,3.0303030303030303,11.76470588235294,0.0,46.010343,-70.618406,15.82887700534775,3.6363636363637397
Amqui,23.61111111111111,3.3950617283950617,19.756838905775076,2.8875379939209727,46.876014,-71.156964,24.38196555217837,3.4965664752898533
Lac-au-Saumon,27.58620689655172,6.551724137931035,24.398625429553263,6.872852233676976,48.417141,-67.343719,28.223723189951443,6.48749851878182
Saint-Alexandre-des-Lacs,29.03225806451613,0.0,12.0,0.0,48.475275,-67.309009,32.438709677419865,0.0
Saint-Tharcisius,20.0,0.0,18.181818181818183,0.0,46.710578,-72.159405,20.363636363636374,0.0
Saint-Vianney,20.40816326530612,0.0,20.0,0.0,48.616306,-67.409714,20.48979591836735,0.0
Val-Brillant,23.118279569892472,3.225806451612903,21.465968586387437,3.1413612565445024,48.501849,-67.615984,23.448741766593457,3.242695490626584
Sayabec,21.818181818181817,2.4242424242424243,17.277486910994764,2.6178010471204187,46.876014,-71.156964,22.72632079961909,2.3855306996668304
Saint-Cl√©ophas,18.91891891891892,0.0,14.285714285714285,0.0,48.507614,-67.783262,19.845559845560047,0.0
Saint-Mo√Øse,23.728813559322035,6.779661016949152,21.052631578947366,3.508771929824561,48.509592,-67.841592,24.264049955397013,7.433838834374228
Saint-No√´l,19.51219512195122,0.0,18.6046511627907,4.651162790697675,48.598603,-67.828621,19.69370391378328,0.0
Saint-Damase,21.428571428571427,0.0,23.684210526315788,2.631578947368421,45.536881,-72.963052,20.977443609022544,0.0
Les M√©chins,34.285714285714285,0.9523809523809524,23.275862068965516,0.0,48.996164,-66.992497,36.4876847290634,1.1428571428571104
Saint-Jean-de-Cherbourg,22.22222222222222,0.0,23.809523809523807,0.0,47.98827,-69.005654,21.904761904761926,0.0
Grosses-Roches,34.48275862068966,0.0,22.5,2.5,48.938289,-67.174857,36.8793103448279,0.0
Sainte-F√©licit√©,25.925925925925924,2.7777777777777777,20.66115702479339,0.8264462809917356,48.901914,-67.333234,26.978879706152384,3.1680440771349367
Saint-Adelme,27.3972602739726,0.0,21.153846153846153,1.9230769230769231,48.828662,-67.283701,28.645943097997588,0.0
Saint-Ren√©-de-Matane,26.666666666666668,0.9523809523809524,20.0,0.8695652173913043,48.801099,-67.472182,28.0,0.9689440993788807
Sainte-Paule,30.0,0.0,22.22222222222222,0.0,48.661027,-67.559539,31.555555555555657,0.0
Matane,24.694903086862887,2.9432878679109833,19.914346895074942,1.7844396859386151,46.876014,-71.156964,25.651014325220558,3.175057504305471
Saint-L√©andre,24.444444444444443,2.2222222222222223,15.909090909090908,0.0,45.968519,-73.388067,26.15151515151547,2.6666666666666288
Saint-Ulric,23.02839116719243,1.5772870662460567,20.73170731707317,2.1341463414634148,46.878499,-71.013279,23.48772793721639,1.4659152112025993
Baie-des-Sables,28.799999999999997,2.4,21.311475409836063,2.459016393442623,48.710744,-67.909982,30.29770491803265,2.3881967213114734
La R√©demption,23.91304347826087,2.1739130434782608,14.814814814814811,0.0,48.444523,-67.878978,25.732689210949957,2.6086956521738784
Saint-Charles-Garnier,25.0,0.0,16.129032258064516,0.0,46.838978,-71.954516,26.774193548386847,0.0
Les Hauteurs,21.73913043478261,2.1739130434782608,16.666666666666664,0.0,48.359782,-68.149339,22.75362318840598,2.6086956521738784
Sainte-Jeanne-d'Arc,16.666666666666664,0.0,10.714285714285714,0.0,48.902771,-72.007679,17.857142857142662,0.0
Saint-Gabriel-de-Rimouski,20.35398230088496,3.5398230088495577,18.103448275862068,1.7241379310344829,48.459106,-68.181127,20.804089105889602,3.902960024412664
Saint-Donat,17.582417582417584,0.0,10.526315789473683,1.0526315789473684,48.511743,-68.186885,18.993637941006455,0.0
Sainte-Ang√®le-de-M√©rici,16.666666666666664,1.0416666666666663,17.142857142857142,0.9523809523809524,48.524218,-68.092464,16.571428571428555,1.0595238095238102
Price,23.121387283236995,3.4682080924855487,18.902439024390244,4.2682926829268295,46.876014,-71.156964,23.96517693500641,3.3081911743973365
Saint-Joseph-de-Lepage,25.0,4.807692307692308,19.047619047619047,4.761904761904762,45.536369,-74.003215,26.190476190476147,4.816849816849816
Mont-Joli,23.154362416107386,2.5167785234899327,20.44374009508716,2.535657686212361,48.595918,-68.191574,23.696486880311568,2.5130026909454477
Sainte-Flavie,26.744186046511626,3.488372093023256,20.224719101123593,1.1235955056179776,48.597916,-68.261027,28.048079435589443,3.961327410504282
Sainte-Luce,20.727272727272727,2.181818181818182,18.08510638297873,1.773049645390071,46.092507,-73.363752,21.25570599613161,2.2635718891038152
Esprit-Saint,27.941176470588236,2.941176470588235,19.73684210526316,1.3157894736842104,48.07444,-68.55271,29.582043343653368,3.2662538699689776
La Trinit√©-des-Monts,26.31578947368421,0.0,30.434782608695656,0.0,48.148134,-68.474955,25.4919908466818,0.0
Saint-Narcisse-de-Rimouski,17.307692307692307,0.9615384615384616,13.636363636363637,0.9090909090909092,48.295182,-68.420568,18.041958041958196,0.9720279720279734
Saint-Marcellin,25.0,2.5,16.216216216216218,0.0,46.145158,-73.636707,26.756756756756204,3.0
Saint-Anaclet-de-Lessard,14.98371335504886,0.9771986970684038,11.532125205930807,1.3179571663920924,48.479481,-68.420143,15.674030984872388,0.9090470032036535
Rimouski,22.58296517004007,3.1850405835816296,18.693982074263765,2.507469056764831,46.876014,-71.156964,23.360761789195294,3.3205548889449688
Saint-Val√©rien,16.470588235294116,0.0,14.893617021276595,1.0638297872340423,46.892117,-70.823693,16.785982478097594,0.0
Saint-Fabien,24.431818181818183,3.4090909090909087,20.76502732240437,2.185792349726776,48.275934,-68.916042,25.165176353700872,3.6537506209637627
Saint-Eug√®ne-de-Ladri√®re,20.0,0.0,13.043478260869565,0.0,48.291749,-68.739399,21.391304347826463,0.0
Saint-Cl√©ment,21.73913043478261,2.1739130434782608,20.0,3.0,47.931118,-69.086706,22.086956521739125,2.0086956521739125
Saint-Jean-de-Dieu,25.391849529780565,4.38871473354232,22.429906542056074,3.7383177570093458,47.98827,-69.005654,25.984238127325625,4.518794128848924
Sainte-Rita,23.333333333333332,0.0,23.333333333333332,0.0,47.950418,-68.910974,23.333333333333332,0.0
Saint-Guy,60.0,0.0,25.0,0.0,48.050955,-68.810625,67.0,0.0
Saint-M√©dard,30.434782608695656,0.0,20.833333333333336,0.0,48.076861,-68.858737,32.35507246376801,0.0
Sainte-Fran√ßoise,25.97402597402597,2.5974025974025974,26.25,2.5,48.095252,-69.065275,25.918831168831147,2.616883116883116
Saint-√âloi,26.666666666666668,3.3333333333333335,21.21212121212121,0.0,48.042611,-69.222157,27.757575757575523,4.0
Trois-Pistoles,39.76608187134503,10.526315789473683,35.309973045822105,8.62533692722372,48.127793,-69.168162,40.6573036364498,10.906511561923594
Notre-Dame-des-Neiges,29.629629629629623,0.0,22.321428571428573,2.6785714285714284,48.096024,-69.21142,31.091269841269877,0.0
Saint-Mathieu-de-Rioux,27.34375,2.34375,24.444444444444443,2.2222222222222223,48.181448,-68.98991,27.923611111111086,2.368055555555557
Saint-Simon,31.818181818181817,0.0,22.727272727272727,2.272727272727273,48.192169,-69.097233,33.63636363636351,0.0
Saint-Cyprien,23.076923076923077,5.769230769230769,20.535714285714285,4.464285714285714,47.893153,-69.02275,23.585164835164846,6.0302197802196815
Saint-Hubert-de-Rivi√®re-du-Loup,22.30769230769231,1.5384615384615383,19.84126984126984,0.7936507936507936,47.850447,-69.535488,22.800976800976855,1.6874236874237454
Saint-Antonin,13.71571072319202,1.4962593516209477,11.25,1.7500000000000002,47.746096,-69.413662,14.208852867830387,1.4455112219451394
Saint-Modeste,12.195121951219512,1.6260162601626018,12.605042016806722,2.5210084033613445,47.810771,-69.386882,12.113137938102085,1.4470178315228281
Saint-Fran√ßois-Xavier-de-Viger,20.0,0.0,17.857142857142858,0.0,47.84021,-69.20319,20.428571428571445,0.0
Saint-√âpiphane,20.0,2.4242424242424243,18.235294117647054,2.3529411764705883,47.897026,-69.332642,20.35294117647061,2.438502673796794
Saint-Paul-de-la-Croix,29.03225806451613,0.0,16.216216216216218,2.702702702702702,47.83691,-69.169059,31.59546643417616,0.0
L'Isle-Verte,23.4375,2.34375,21.62162162162162,2.702702702702702,47.9764,-69.271813,23.800675675675734,2.2719594594594525
Cacouna,20.221606648199447,1.662049861495845,17.525773195876287,1.2886597938144329,46.876014,-71.156964,20.760773338664194,1.7367278750321304
Saint-Ars√®ne,16.666666666666664,2.4390243902439024,14.342629482071716,2.788844621513944,47.94371,-69.396631,17.131474103585674,2.3690603439899007
Rivi√®re-du-Loup,20.982381206620396,2.4025627335824877,17.258064516129032,2.0967741935483875,47.850447,-69.535488,21.727244544718587,2.4637204415893166
Notre-Dame-du-Portage,26.548672566371685,0.0,19.65811965811966,0.8547008547008548,47.740765,-69.632399,27.92678314802197,0.0
D√©gelis,26.003490401396164,2.966841186736475,22.0949263502455,2.618657937806874,46.876014,-71.156964,26.785203211626367,3.0364778365224083
Saint-Jean-de-la-Lande,23.076923076923077,0.0,12.5,0.0,47.453575,-68.640208,25.192307692308532,0.0
Packington,23.96694214876033,0.8264462809917356,20.168067226890756,0.8403361344537815,46.876014,-71.156964,24.726717133134116,0.8236683102993272
Saint-Marc-du-Lac-Long,22.78481012658228,2.5316455696202533,20.454545454545457,3.4090909090909087,47.394776,-68.902584,23.25086306098956,2.3561565017261614
Rivi√®re-Bleue,30.833333333333336,5.833333333333333,25.6,4.8,47.432532,-69.043541,31.88000000000011,6.0400000000000205
Saint-Eus√®be,19.327731092436977,2.5210084033613445,13.821138211382117,2.4390243902439024,47.543915,-68.952385,20.42904966864762,2.5374052059848395
Saint-Juste-du-Lac,23.52941176470588,1.96078431372549,16.9811320754717,0.0,47.652535,-68.756381,24.83906770255271,2.3529411764706083
Auclair,18.75,0.0,15.217391304347828,0.0,46.876014,-71.156964,19.456521739130494,0.0
Lejeune,25.0,0.0,16.666666666666664,0.0,46.876014,-71.156964,26.66666666666697,0.0
Biencourt,29.78723404255319,4.25531914893617,27.450980392156865,3.92156862745098,46.876014,-71.156964,30.25448477263251,4.322069253233224
Lac-des-Aigles,20.754716981132077,0.0,14.285714285714285,1.7857142857142856,47.969686,-68.686479,22.048517520215682,0.0
Saint-Michel-du-Squatec,33.6322869955157,4.484304932735426,25.64102564102564,3.418803418803419,47.881279,-68.723164,35.23053926641387,4.697405235521842
T√©miscouata-sur-le-Lac,24.43991853360489,2.8513238289205702,19.7252208047105,2.1589793915603535,47.674369,-68.864665,25.382858079383823,2.9897927163926283
Saint-Pierre-de-Lamy,25.0,0.0,27.27272727272727,0.0,47.787456,-69.03667,24.545454545454618,0.0
Saint-Louis-du-Ha! Ha!,25.968992248062015,3.875968992248062,21.21212121212121,3.4090909090909087,47.667316,-68.979446,26.920366455250132,3.9693446088794815
Saint-Elz√©ar-de-T√©miscouata,20.588235294117645,0.0,13.513513513513514,2.702702702702702,47.59239,-69.09673,22.003179650238508,0.0
Saint-Honor√©-de-T√©miscouata,22.972972972972975,2.027027027027027,19.230769230769234,2.564102564102564,47.707304,-69.123611,23.72141372141391,1.9196119196119241
Poh√©n√©gamook,27.307692307692307,3.8461538461538463,22.22222222222222,2.867383512544803,46.876014,-71.156964,28.324786324786373,4.041907912875615
Mont-Carmel,24.786324786324787,3.418803418803419,20.51282051282051,2.564102564102564,47.41787,-69.841796,25.641025641025635,3.589743589743591
Saint-Bruno-de-Kamouraska,24.074074074074073,2.7777777777777777,22.429906542056074,3.7383177570093458,47.474176,-69.732748,24.40290758047763,2.5856697819315286
Saint-Pascal,24.03560830860534,2.967359050445104,20.930232558139537,2.3255813953488373,47.52963,-69.809041,24.656683458698353,3.095714581464364
Sainte-H√©l√®ne-de-Kamouraska,21.73913043478261,2.1739130434782608,23.076923076923077,3.296703296703297,47.676723,-69.725541,21.471571906354484,1.949354992833264
Saint-Joseph-de-Kamouraska,9.75609756097561,2.4390243902439024,12.195121951219512,0.0,47.610959,-69.63786,9.268292682926813,2.9268292682927495
Saint-Alexandre-de-Kamouraska,18.98148148148148,1.8518518518518516,16.748768472906402,1.9704433497536944,47.645313,-69.576214,19.42802408319642,1.8281335522714812
Saint-Germain,16.666666666666664,0.0,17.24137931034483,0.0,46.801477,-71.045524,16.551724137931046,0.0
Kamouraska,25.203252032520325,3.2520325203252036,22.88135593220339,2.5423728813559325,46.876014,-71.156964,25.66763125258376,3.3939644481191067
Saint-Denis-De La Bouteillerie,28.30188679245283,3.7735849056603774,25.0,0.0,47.51523,-69.9339,28.962264150943383,4.528301886792406
Saint-Philippe-de-N√©ri,24.69879518072289,2.4096385542168677,18.39080459770115,1.1494252873563218,47.470047,-69.883613,25.960393297326846,2.6616812075890266
Rivi√®re-Ouelle,24.24242424242424,3.0303030303030303,22.857142857142858,2.857142857142857,47.452664,-70.001058,24.519480519480453,3.064935064935071
Saint-Pac√¥me,25.78616352201258,2.515723270440252,22.0125786163522,3.1446540880503147,47.409665,-69.947619,26.540880503144535,2.3899371069182394
Saint-On√©sime-d'Ixworth,24.193548387096776,1.6129032258064515,18.0327868852459,0.0,46.628622,-70.972837,25.42570068746727,1.935483870967687
La Pocati√®re,30.454545454545457,6.59090909090909,25.438596491228072,5.701754385964912,47.369076,-70.032245,31.45773524720903,6.7687400318979485
Sainte-Anne-de-la-Pocati√®re,17.307692307692307,1.9230769230769231,11.242603550295858,0.0,47.369076,-70.032245,18.520710059171506,2.307692307692264
Saint-Ir√©n√©e,33.33333333333333,3.0303030303030303,28.78787878787879,3.0303030303030303,46.010343,-70.618406,34.24242424242402,3.0303030303030303
La Malbaie,25.196374622356497,2.9607250755287007,19.90975747320925,2.3124647490129724,47.633257,-70.153904,26.253698052185882,3.0903771408318335
Notre-Dame-des-Monts,18.867924528301888,2.515723270440252,13.496932515337424,2.4539877300613497,46.826677,-70.393944,19.942122930894584,2.528070378516034
Saint-Aim√©-des-Lacs,22.831050228310502,2.28310502283105,17.75700934579439,1.8691588785046729,47.703637,-70.34948,23.845858404813725,2.3658942516963464
Clermont,21.812080536912752,2.013422818791946,18.151815181518153,1.32013201320132,46.876014,-71.156964,22.544133607991853,2.1520809799100675
Baie-Sainte-Catherine,35.0,5.0,26.31578947368421,0.0,48.101525,-69.72029,36.736842105262895,6.0
Petite-Rivi√®re-Saint-Fran√ßois,25.153374233128833,2.4539877300613497,22.818791946308725,2.684563758389262,47.31352,-70.563716,25.62029069049288,2.4078725243957706
Baie-Saint-Paul,27.781665500349895,3.498950314905528,22.57844474761255,3.1377899045020468,47.453662,-70.512676,28.822309650897296,3.5711823969862166
L'Isle-aux-Coudres,39.83050847457627,5.084745762711865,34.84848484848485,3.787878787878788,46.801477,-71.045524,40.82691319979472,5.344119157678392
Les √âboulements,28.57142857142857,3.3834586466165413,24.43609022556391,2.255639097744361,47.479329,-70.323409,29.39849624060139,3.6090225563909826
Saint-Hilarion,17.24137931034483,0.8620689655172413,18.0327868852459,1.639344262295082,47.593953,-70.432002,17.08309779536461,0.7066139061616354
Saint-Urbain,24.0,2.909090909090909,21.35593220338983,2.3728813559322033,45.996966,-72.991745,24.52881355932186,3.0163328197226633
Saint-Omer,24.13793103448276,0.0,21.875,0.0,48.109431,-66.246415,24.590517241379303,0.0
Saint-Pamphile,24.066390041493776,2.4896265560165975,19.485294117647054,2.2058823529411766,46.960836,-69.778626,24.982609226263094,2.5463753966316744
Saint-Adalbert,22.641509433962263,3.7735849056603774,14.035087719298245,0.0,46.863648,-69.899045,24.36279377689516,4.528301886792406
Saint-Marcel,24.418604651162788,1.162790697674419,23.863636363636363,3.4090909090909087,46.471591,-72.537643,24.529598308668056,0.713530655391196
Sainte-Perp√©tue,26.21951219512195,3.9634146341463414,19.43661971830986,2.8169014084507045,46.086446,-72.464835,27.576090690484307,4.192717279285489
Tourville,26.229508196721312,0.0,18.461538461538463,1.5384615384615383,46.876014,-71.156964,27.783102143757787,0.0
Saint-Damase-de-L'Islet,25.925925925925924,3.7037037037037033,21.428571428571427,3.571428571428571,47.089834,-70.331571,26.825396825396638,3.7301587301587347
Saint-Cyrille-de-Lessard,30.88235294117647,2.941176470588235,26.38888888888889,4.166666666666666,47.035835,-70.272722,31.781045751633883,2.696078431372598
Saint-Aubert,24.18300653594771,1.96078431372549,18.055555555555554,0.6944444444444444,47.173248,-70.189128,25.408496732025924,2.214052287581751
Sainte-Louise,20.8955223880597,1.4925373134328357,17.857142857142858,2.142857142857143,47.274951,-70.123332,21.503198294243248,1.3624733475480184
Saint-Roch-des-Aulnaies,25.806451612903224,0.0,17.346938775510203,1.020408163265306,47.315668,-70.144451,27.498354180382194,0.0
Saint-Jean-Port-Joli,27.019089574155657,3.524229074889868,22.692889561270803,3.3282904689863844,47.212132,-70.266794,27.884329576732853,3.5634167960705696
L'Islet,20.689655172413794,1.8567639257294428,18.434343434343432,1.5151515151515151,46.876014,-71.156964,21.140717520027806,1.9250864078450434
Saint-Just-de-Breteni√®res,25.563909774436087,3.007518796992481,19.858156028368796,2.127659574468085,46.567134,-70.093928,26.70506052364999,3.1834906414973716
Lac-Fronti√®re,31.57894736842105,0.0,30.0,0.0,46.692766,-70.028603,31.894736842105203,0.0
Saint-Fabien-de-Panet,32.29166666666667,7.291666666666667,22.772277227722775,5.9405940594059405,46.637478,-70.122199,34.19554455445541,7.561881188118832
Sainte-Lucie-de-Beauregard,22.58064516129032,0.0,12.5,0.0,46.740764,-70.031772,24.596774193548754,0.0
Sainte-Apolline-de-Patton,29.310344827586203,1.7241379310344829,22.033898305084744,0.0,46.806894,-70.195739,30.76563413208669,2.0689655172412813
Saint-Paul-de-Montminy,27.500000000000004,2.5,22.89156626506024,3.614457831325301,46.730874,-70.360442,28.421686746987916,2.277108433735009
Sainte-Euph√©mie-sur-Rivi√®re-du-Sud,25.0,0.0,21.21212121212121,1.5151515151515151,46.77358,-70.44011,25.75757575757575,0.0
Notre-Dame-du-Rosaire,23.684210526315788,0.0,21.62162162162162,0.0,46.826677,-70.393944,24.096728307254693,0.0
Cap-Saint-Ignace,25.407166123778502,3.908794788273615,20.588235294117645,3.92156862745098,47.036699,-70.458292,26.370952289710658,3.9062400204381404
Montmagny,24.247948951686418,2.461257976298997,20.361990950226243,1.9004524886877827,46.876014,-71.156964,25.02514055197844,2.5734190738212703
Saint-Pierre-de-la-Rivi√®re-du-Sud,16.3265306122449,1.020408163265306,14.736842105263156,1.0526315789473684,47.787456,-69.03667,16.644468313641255,1.0139634801288935
Saint-Fran√ßois-de-la-Rivi√®re-du-Sud,22.58064516129032,4.516129032258064,20.0,2.5806451612903225,48.095252,-69.065275,23.0967741935483,4.903225806451587
Berthier-sur-Mer,26.11464968152866,2.547770700636943,23.18840579710145,2.1739130434782608,46.926094,-70.730645,26.699898458414054,2.6225422320686675
Saint-Antoine-de-l'Isle-aux-Grues,40.0,0.0,33.33333333333333,0.0,46.985016,-70.543775,41.33333333333303,0.0
Saint-Phil√©mon,29.230769230769234,1.5384615384615383,26.47058823529412,2.941176470588235,46.67863,-70.45082,29.78280542986431,1.2579185520361307
Notre-Dame-Auxiliatrice-de-Buckland,25.0,2.380952380952381,19.767441860465116,1.162790697674419,46.691805,-71.071519,26.04651162790651,2.624584717608002
Saint-Nazaire-de-Dorchester,17.142857142857142,0.0,15.151515151515152,0.0,46.801477,-71.045524,17.541125541125552,0.0
Saint-L√©on-de-Standon,27.350427350427353,1.7094017094017095,23.52941176470588,2.5210084033613445,46.479154,-70.618439,28.114630467571715,1.5470803706097627
Saint-Malachie,22.151898734177212,2.5316455696202533,18.954248366013072,0.6535947712418301,46.536688,-70.784515,22.791428807810235,2.907255729295912
Saint-Damien-de-Buckland,35.26570048309179,11.594202898550725,34.82142857142857,8.928571428571429,46.622772,-70.655472,35.35455486542443,12.12732919254654
Armagh,25.503355704697988,3.3557046979865772,21.476510067114095,2.684563758389262,46.876014,-71.156964,26.308724832214693,3.4899328859060574
Saint-N√©r√©e-de-Bellechasse,25.0,0.0,17.105263157894736,1.3157894736842104,46.723733,-70.719219,26.578947368421268,0.0
Saint-Lazare-de-Bellechasse,20.74074074074074,1.4814814814814816,18.333333333333332,1.6666666666666667,46.801477,-71.045524,21.22222222222217,1.444444444444457
Sainte-Claire,18.8953488372093,2.0348837209302326,16.56804733727811,1.7751479289940828,46.601021,-70.864244,19.360809137195474,2.0868308793174606
Saint-Anselme,17.5,1.5,16.184971098265898,1.4450867052023122,46.628622,-70.972837,17.763005780346816,1.5109826589595414
Saint-Henri,15.405164737310775,1.157613535173642,12.151394422310757,1.0956175298804782,46.558275,-70.983752,16.055918800310792,1.1700127362322768
Honfleur,19.27710843373494,6.024096385542169,13.6986301369863,1.36986301369863,46.876014,-71.156964,20.392804093084578,6.954943059910875
Saint-Gervais,17.441860465116278,2.3255813953488373,16.74757281553398,3.3980582524271843,46.801477,-71.045524,17.580717995032728,2.1110860239332396
Saint-Rapha√´l,20.481927710843372,2.4096385542168677,18.725099601593627,1.99203187250996,46.79546,-70.755043,20.833293332693415,2.493159890558246
La Durantaye,18.75,0.0,17.105263157894736,0.0,46.801477,-71.045524,19.078947368421154,0.0
Saint-Charles-de-Bellechasse,15.384615384615383,2.0242914979757085,16.228070175438596,1.7543859649122806,46.801477,-71.045524,15.215924426450727,2.078272604588392
Beaumont,24.65986394557823,4.081632653061225,16.115702479338843,1.6528925619834711,46.876014,-71.156964,26.368696238826487,4.567380671276737
Saint-Michel-de-Bellechasse,25.280898876404496,1.6853932584269662,21.965317919075144,1.7341040462427744,46.801477,-71.045524,25.944015067870396,1.6756511008638029
Saint-Vallier,22.641509433962263,2.358490566037736,20.47619047619047,1.4285714285714286,46.892117,-70.823693,23.074573225516588,2.5444743935310044
Saint-Fran√ßois-de-l'√éle-d'Orl√©ans,28.30188679245283,1.8867924528301887,24.528301886792452,0.0,48.095252,-69.065275,29.05660377358481,2.264150943396203
Sainte-Famille,28.71287128712871,1.98019801980198,23.863636363636363,1.1363636363636365,46.926959,-71.020197,29.68271827182707,2.1489648964896446
Saint-Jean-de-l'√éle-d'Orl√©ans,26.41509433962264,1.4150943396226416,24.864864864864867,2.1621621621621623,47.98827,-69.005654,26.725140234574155,1.2656807751147312
Saint-Laurent-de-l'√éle-d'Orl√©ans,23.12925170068027,1.3605442176870748,20.77922077922078,1.948051948051948,45.505077,-73.674872,23.59925788497219,1.2430426716140914
Saint-Pierre-de-l'√éle-d'Orl√©ans,25.510204081632654,2.0408163265306123,19.2090395480226,1.1299435028248588,47.787456,-69.03667,26.770436988354504,2.2229908912717633
Sainte-P√©tronille,26.47058823529412,0.0,20.0,2.0,46.847046,-71.13592,27.7647058823527,0.0
Saint-Tite-des-Caps,22.10884353741497,1.7006802721088436,15.946843853820598,0.9966777408637874,47.173053,-70.744431,23.34124347413399,1.841480778357834
Saint-Ferr√©ol-les-Neiges,19.11764705882353,1.1764705882352942,17.763157894736842,0.6578947368421052,47.128111,-70.845256,19.38854489164089,1.2801857585139373
Saint-Joachim,19.463087248322147,2.013422818791946,17.006802721088434,0.6802721088435374,53.393,-71.781,19.954344153768943,2.2800529607816316
Beaupr√©,27.066666666666663,6.533333333333332,24.8546511627907,4.796511627906977,46.876014,-71.156964,27.509069767441815,6.88069767441857
Sainte-Anne-de-Beaupr√©,26.480836236933797,3.484320557491289,21.863799283154123,2.867383512544803,47.020784,-70.931685,27.404243627689993,3.607707966480575
Ch√¢teau-Richer,20.0,2.5454545454545454,17.60104302477184,1.8252933507170792,46.975392,-71.013702,20.479791395045595,2.6894867844020496
L'Ange-Gardien,15.675675675675675,1.351351351351351,13.360881542699724,1.3774104683195594,46.920077,-71.08238,16.138634502270975,1.3461395279577104
Boischatel,13.909030982201717,1.5161502966381015,10.363495746326372,1.31477184841454,46.876014,-71.156964,14.618138029376723,1.556425986282818
Sainte-Catherine-de-la-Jacques-Cartier,10.38286826735886,0.5840363400389358,8.623417721518987,0.4746835443037975,45.400871,-73.547762,10.734758376526884,0.6059068991859604
Fossambault-sur-le-Lac,17.5,1.0,14.814814814814811,0.6172839506172839,46.907385,-71.616485,18.037037037036953,1.0765432098765189
Lac-Saint-Joseph,38.46153846153847,0.0,29.629629629629623,0.0,46.88263,-71.640367,40.227920227920094,0.0
Shannon,4.881889763779528,0.0,3.428571428571429,0.1904761904761904,46.876014,-71.156964,5.17255343082104,0.0
Saint-Gabriel-de-Valcartier,7.161803713527852,0.2652519893899204,7.006369426751593,0.6369426751592357,46.966594,-71.493482,7.192890570883108,0.19091385223603652
Lac-Delage,8.661417322834646,0.0,6.666666666666667,0.0,46.971035,-71.407469,9.060367454068228,0.0
Stoneham-et-Tewkesbury,9.553349875930522,0.620347394540943,8.124076809453472,0.5908419497784343,47.128904,-71.328534,9.83920448922595,0.6262484834934448
Lac-Beauport,10.128205128205128,0.641025641025641,6.5550906555090656,0.1394700139470014,46.945887,-71.287225,10.842828022744243,0.7413367664413784
Sainte-Brigitte-de-Laval,7.745504840940526,0.6915629322268326,6.451612903225806,0.5376344086021506,47.00736,-71.188056,8.00428322848336,0.7223486369517715
Notre-Dame-des-Anges,100.0,40.0,81.25,31.25,48.096024,-69.21142,100.0,41.75
Qu√©bec,17.925316037827447,1.7379653183680603,15.331241703873538,1.3575479666948231,46.876014,-71.156964,18.444130904618078,1.8140487887027348
L'Ancienne-Lorette,18.46819024088944,1.173563928350834,15.750463248919086,1.0500308832612724,46.806894,-71.366242,19.011735639283643,1.1982705373687494
Saint-Augustin-de-Desmaures,16.046758767268862,2.0456960680127523,10.474090407938258,1.8743109151047408,46.737298,-71.44544,17.161292439135195,2.079973098594351
L√©vis,18.788374948833404,2.52421885659708,14.937029480053472,2.265531555618096,46.876014,-71.156964,19.55864404258955,2.575956316792869
Frampton,20.161290322580644,2.4193548387096775,16.083916083916083,2.797202797202797,46.876014,-71.156964,20.976765170313683,2.343785247011027
Saints-Anges,16.017316017316016,2.1645021645021645,13.478260869565217,2.1739130434782608,46.417323,-70.876075,16.525127046866146,2.162619988706946
Vall√©e-Jonction,20.266666666666666,2.933333333333333,15.463917525773196,1.804123711340206,46.376042,-70.923954,21.22721649484538,3.159175257731988
Sainte-Marie,16.455696202531644,1.4892032762472078,13.657770800627944,1.726844583987441,46.444123,-71.015358,17.01528128291261,1.4416750146991575
Sainte-Marguerite,16.8141592920354,0.0,13.392857142857142,0.8928571428571428,46.471591,-72.537643,17.498419721871187,0.0
Sainte-H√©n√©dine,22.04724409448819,5.511811023622047,20.833333333333336,6.666666666666667,46.558275,-70.983752,22.29002624671915,5.280839895013116
Scott,13.06122448979592,1.2244897959183674,11.914893617021278,1.702127659574468,46.876014,-71.156964,13.290490664350841,1.128962223187159
Saint-Bernard,13.36206896551724,1.7241379310344829,11.139240506329111,1.7721518987341771,46.49904,-71.135908,13.806634657354834,1.7145351374945434
Saint-Lambert-de-Lauzon,12.56583897667419,1.203912716328066,9.7165991902834,0.8097165991902834,46.587703,-71.211163,13.135686933952456,1.2827519397556273
Saint-Victor,25.311203319502074,4.979253112033195,23.333333333333332,4.583333333333333,46.147309,-70.898955,25.706777316735725,5.058437067773156
Saint-Alfred,17.77777777777778,2.2222222222222223,15.217391304347828,0.0,46.178588,-70.81355,18.289855072463865,2.6666666666666288
Beauceville,22.29299363057325,2.8662420382165608,18.09598741148702,2.2029897718332023,46.876014,-71.156964,23.13239487439023,2.9988924914932795
Saint-Odilon-de-Cranbourne,19.34306569343066,2.9197080291970803,15.753424657534246,2.054794520547945,46.357122,-70.675143,20.0609939006099,3.092690730926904
Saint-Joseph-de-Beauce,19.076305220883537,2.8112449799196786,15.062761506276152,2.092050209205021,46.312152,-70.875323,19.879013963805164,2.9550839340626
Saint-Joseph-des-√ârables,18.181818181818183,0.0,12.76595744680851,0.0,45.536369,-74.003215,19.264990328820204,0.0
Saint-Jules,24.0,2.0,18.181818181818183,1.818181818181818,45.978911,-73.716094,25.163636363636215,2.0363636363636317
Tring-Jonction,23.35766423357664,5.109489051094891,19.727891156462583,2.7210884353741496,46.26012,-70.978254,24.08361884899955,5.587169174239079
Saint-Fr√©d√©ric,20.0,2.0,20.0,1.9047619047619049,46.296754,-70.974729,20.0,2.019047619047619
Saint-S√©verin,25.925925925925924,0.0,26.923076923076923,3.8461538461538463,46.342943,-72.895351,25.726495726495727,0.0
Saint-Zacharie,19.39393939393939,1.5151515151515151,18.285714285714285,1.1428571428571428,46.129315,-70.359493,19.615584415584408,1.5896103896103853
Sainte-Aur√©lie,20.0,2.3529411764705883,15.934065934065933,1.098901098901099,46.176274,-70.359302,20.81318681318703,2.603749191984491
Saint-Prosper,22.636103151862464,4.584527220630372,18.980169971671387,2.8328611898017,46.616275,-72.292515,23.367289787900745,4.934860426796149
Saint-Benjamin,15.84158415841584,1.98019801980198,13.978494623655912,0.0,46.27639,-70.62613,16.214202065367886,2.3762376237623357
